aptos_por_local,bairro,endereco,lat,local_de_votacao,long,secoes_eleitorais,zona_eleitoral_nome,zona_eleitoral_nro
4173,VILA ZILDA,"RUA SOUSA BREVES, 80, São Paulo",-23.555805,EE. PROF. JOÃO DIAS DA SILVEIRA,-46.546326,416ª; 418ª; 443ª; 452ª; 461ª; 463ª; 471ª; 486ª; 491ª; 501ª; 511ª; 524ª;,TATUAPÉ,253
5184,SAUDE,"AV. INHAIBA, 92, São Paulo",-23.612812,EE. RAUL FONSECA,-46.608742,Da 161ª à 176ª.,CURSINO,413
3064,PARQUE DAS FLORES,"RUA DOS LÍRIOS, 02, São Paulo",-23.603003,EMEF. PROFA. MARIA APARECIDA VILASBOAS,-46.468735,566ª; 581ª; 590ª; 598ª; 605ª; 612ª; 617ª; 630ª; 658ª; 685ª; 717ª;,SÃO MATEUS,375
4860,JARDIM SANTO ANDRÉ,"RUA GODOY BUENO, 19, São Paulo",-23.604262,EE. PROF. MARCOS ANTONIO COSTA,-46.463928,353ª; 362ª; 388ª; 401ª; 413ª; 426ª; 442ª; 461ª; 473ª; 488ª; 502ª; 513ª; 532ª; 655ª; 684ª; 712ª; 732ª;,SÃO MATEUS,375
3387,RESIDENCIAL SOL NASCENTE,"RUA SÃO MARCOS, 79, São Paulo",-23.450648,EE. PARQUE ANHANGUERA,-46.71936,Da 214ª à 221ª; 273ª; 341ª; 477ª;,PERUS,389
6796,JARDIM CARUMBÉ,"RUA FLORIANO DA COSTA BARROSO, 10, São Paulo",-23.466396,EE. PROFESSOR RENATO DE ARRUDA PENTEADO,-46.684341,337ª; 344ª; 348ª; 364ª; 377ª; 391ª; 407ª; Da 428ª à 429ª; 442ª; 451ª; 465ª; 477ª; 485ª; 498ª; 515ª; 568ª; 587ª;,BRASILÂNDIA,376
1364,JARDIM GUARANI,"RUA SANTANA DO ARACUARI, 185, São Paulo",-23.465136,EMEI VEREADOR ALEX FREUA NETTO,-46.695328,417ª; 443ª; 464ª; 483ª;,BRASILÂNDIA,376
3495,VILA ARICANDUVA,"RUA DR. LUIS CARLOS, 740, São Paulo",-23.531255,EE DONA ZALINA ROLIM,-46.498947,Da 1ª à 7ª; 293ª; 354ª; 417ª; 429ª;,VILA MATILDE,347
2760,VILA ROMANA,"PRAÇA ALFREDO WEISZFLOG, S/N, São Paulo",-23.52307,EMEI. NOEMIA IPPÓLITO,-46.714554,Da 283ª à 287ª; 341ª; 369ª;,LAPA,250
4575,JARDIM SHANGRILA(ZONA NORTE),"RUA PRÍNCIPE, 38, São Paulo",-23.440569,EMEF. PROF. ANTONIO RODRIGUES DE CAMPOS,-46.720734,Da 120ª à 122ª; 258ª; 265ª; 286ª; 301ª; 323ª; 356ª; 365ª; 377ª; 398ª;,PERUS,389
3209,SITIO VALE VERDE,"RUA PROJETADA,64, São Paulo",-23.696092,EE. JARDIM CAPELA II,-46.766739,247ª; 251ª; 253ª; 256ª; 260ª; Da 266ª à 267ª; 271ª; 344ª; 354ª;,PIRAPORINHA,372
3687,JARDIM SANTA FÉ (ZONA SUL),"RUA JULIA MAMÉIA, 200, São Paulo",-23.758953,EMEF. PROF. AYRTON OLIVEIRA SAMPAIO,-46.706314,Da 179ª à 183ª; Da 265ª à 266ª; 280ª; 300ª; 307ª; 556ª;,PARELHEIROS,381
1789,JARDIM SANTA FÉ (PARELHEIROS),"RUA CONDE DE LACASTRE, 209, São Paulo",-23.759581,EMEF. ULYSSES DA SILVEIRA GUIMARÃES,-46.705627,376ª; 393ª; 408ª; 433ª; 481ª; 527ª; 566ª;,PARELHEIROS,381
2328,JARDIM ELZA,"RUA FERNANDO DE GODOI, 21, São Paulo",-23.521811,EE. PROF. JOÃO BATISTA VILANOVA ARTIGAS,-46.389084,Da 117ª à 122ª; 550ª; 570ª; 583ª;,ITAIM PAULISTA,352
3863,AGUA BRANCA,"RUA SABAÚNA, S/N, São Paulo",-23.528107,EE. RAUL CORTEZ,-46.698074,Da 288ª à 289ª; 305ª; 324ª; 344ª; 373ª; 392ª; 400ª; 418ª; 427ª; 448ª;,LAPA,250
49,VILA LEOPOLDINA,"AV. NAÇÕES UNIDAS, 1230, São Paulo",-23.511737,CDP III  CENTRO DE DETENÇÃO PROVISÓRIA DE PINHEIROS III,-46.704254,442ª.,LAPA,250
5917,JARDIM CAMARGO NOVO,"RUA DA CONQUISTA , 50, São Paulo",-23.487179,EE. DEPUTADO JOÃO DÓRIA,-46.399384,300ª; 310ª; 323ª; 326ª; 333ª; 342ª; 349ª; 355ª; 374ª; 382ª; 389ª; 396ª; 406ª; 411ª; 423ª; 432ª; 442ª; 451ª;,ITAIM PAULISTA,352
4493,CIDADE PATRIARCA,"RUA PEDRO MORCILLA FILHO, 578, São Paulo",-23.555175,EMEF. FIRMINO TIBÚRCIO DA COSTA,-46.491394,Da 196ª à 206ª; 419ª;,VILA MATILDE,347
6772,JARDIM MARIA FERNANDES,"RUA ARCELINA TEIXEIRA DA SILVA, S/N, São Paulo",-23.75581,EE. JORGE SARAIVA,-46.703568,113ª; Da 208ª à 222ª; 506ª; 518ª; 557ª;,PARELHEIROS,381
3475,JARDIM IVA,"RUA PROFA. ALZIRA DE OLIVEIRA GILIOLI, 32, São Paulo",-23.552658,EMEF ROQUETE PINTO,-46.534653,479ª; 489ª; 498ª; 508ª; 523ª; 533ª; 540ª; 574ª; 587ª; 611ª; 629ª; 637ª; 648ª;,TATUAPÉ,253
4270,JARDIM MANGALOT,"RUA GENERAL LAURO CAVALCANTI DE FARIAS, 438, São Paulo",-23.538337,EMEF. JAIRO RAMOS,-46.719532,308ª; 333ª; 361ª; 366ª; 375ª; 388ª; 394ª; 401ª; 410ª; 416ª; 433ª; 449ª;,LAPA,250
4257,VILA DALVA,"RUA PADRE PAULO CANELLES, 611, São Paulo",-23.570281,EMEF. GENERAL  ÁLVARO SILVA BRAGA,-46.761246,Da 279ª à 283ª; 306ª; 316ª; 331ª; 357ª; 385ª; 415ª; Da 583ª à 584ª;,RIO PEQUENO,374
5336,JARDIM JOAO XXIII,"AV. DO VATICANO, 245, São Paulo",-23.583497,EE. JOÃO XXIII,-46.772919,329ª; 333ª; 338ª; 340ª; 363ª; 372ª; 382ª; 396ª; 410ª; 416ª; 434ª; 442ª; 455ª; 464ª; 475ª; 547ª;,RIO PEQUENO,374
3885,JARDIM GUARUJA,"RUA ARTUR JOSE IGNACIO,30, São Paulo",-23.679429,EMEF MAURO FACCIO GONCALVES ZACARIA,-46.748543,203ª; 214ª; 233ª; 242ª; 250ª; 263ª; 274ª; 284ª; 294ª; 304ª;,PIRAPORINHA,372
852,JARDIM NELIA,"RUA MANFREDO FESTI 160, São Paulo",-23.50733,EE. REPÚBLICA DA GUATEMALA,-46.387711,416ª; 461ª; 478ª; 558ª;,ITAIM PAULISTA,352
8358,JARDIM CAMBARA,"RUA DOM FRANCISCO CARDOSO AYRES, 285, São Paulo",-23.584755,EE. PROFA. GUIOMAR DA ROCHA RINALDI,-46.773605,Da 68ª à 84ª; 297ª; 303ª; 310ª; 313ª; 317ª; 320ª; Da 563ª à 564ª;,RIO PEQUENO,374
6828,ITAIM PAULISTA,"RUA PADRE VIRGÍLIO CAMPELLO, 130, São Paulo",-23.497098,EE. MADRE PAULINA,-46.391315,309ª; 314ª; 318ª; 329ª; 337ª; 343ª; 348ª; 354ª; 357ª; 373ª; 380ª; 386ª; 391ª; 397ª; 404ª; 409ª; 419ª; 426ª; 434ª; 441ª; 453ª;,ITAIM PAULISTA,352
6342,JARDIM CAMARGO NOVO,"AVENIDA JOSÉ BORGES DO CANTO, 18, São Paulo",-23.508589,EMEF. EZEQUIEL RAMOS JUNIOR,-46.378098,211ª; 218ª; 221ª; 226ª; 230ª; 232ª; 235ª; 238ª; 242ª; 247ª; 252ª; 258ª; Da 262ª à 263ª; 268ª; 274ª; 277ª; 472ª;,ITAIM PAULISTA,352
7170,MORRO DO INDIO,"RUA CIPOTUBA, 37, São Paulo",-23.688211,EE. PASTOR CÍCERO CANUTO DE LIMA,-46.778996,Da 103ª à 123ª.,VALO VELHO,20
5407,PARQUE SAO JORGE,"RUA JOSÉ TAVARES DE SIQUEIRA, 198, São Paulo",-23.57091,EE. PROFª BENEDITA RIBAS FURTADO DA SILVEIRA,-46.524353,Da 38ª à 51ª; 595ª;,TATUAPÉ,253
1638,COHAB TAIPAS,"AVENIDA ELISIO TEIXEIRA LEITE, S/N., São Paulo",-23.454428,EMEF. PROFª  ALICE MEIRELLES REIS,-46.724854,384ª; 399ª; 416ª; 419ª; 431ª; 444ª; 454ª; 474ª;,PERUS,389
6255,VILA CATUPIA,"RUA URUTINGA, 144, São Paulo",-23.468285,EMEF. MÁRIO KOSEL FILHO,-46.741333,Da 81ª à 93ª; 324ª; 336ª; 345ª;,PIRITUBA,325
7547,JARDIM SÃO PEDRO,"RUA PROFA. LUCILA CERQUEIRA, 100, São Paulo",-23.56147,EE. PROFA. SUMIÊ IWATA,-46.427536,Da 157ª à 171ª; 196ª; 201ª; 207ª; 218ª; 232ª;,CONJUNTO JOSÉ BONIFÁCIO,405
2358,JARDIM AUREA,"RUA HENRIQUE ADAMUS, 15, São Paulo",-23.564617,EMEF. PROF. LUIZ ROBERTO MEGA,-46.436462,205ª; 214ª; 220ª; 224ª; 245ª; 251ª; 256ª; 264ª;,CONJUNTO JOSÉ BONIFÁCIO,405
3207,BRAS,"RUA MONSENHOR DE ANDRADE, 798, São Paulo",-23.540383,ETE. CARLOS DE CAMPOS,-46.624603,Da 152ª à 157ª; Da 195ª à 197ª;,SANTA IFIGÊNIA,3
5311,CENTRO,"LARGO DE SÃO BENTO, S/N, São Paulo",-23.53755,COLÉGIO DE SÃO BENTO,-46.636276,Da 1ª à 13ª; 215ª;,SANTA IFIGÊNIA,3
5878,VILA NOVA MAZZEI,"RUA DOS IMBIRAS, 49, São Paulo",-23.476473,EE. PEDRO ALEXANDRINO,-46.625977,Da 200ª à 213ª; 341ª;,TUCURUVI,256
4814,JARDIM SAO MANOEL,"RUA PROF.  ANTÔNIO CASTELAR DE FRANCESCHI, 200, São Paulo",-23.470805,EE. CONSELHEIRO RUY BARBOSA,-46.60881,Da 185ª à 190ª; 239ª; 257ª; 306ª; 339ª; 420ª; 432ª;,TUCURUVI,256
4850,PENHA DE FRANÇA,"PRAÇA OITO DE SETEMBRO, 73, São Paulo",-23.525274,EE. SANTOS DUMONT,-46.534653,Da 11ª à 21ª; 224ª; 242ª; 304ª;,PENHA DE FRANÇA,252
6956,JARDIM AURORA (ZONA LESTE),"RUA ANIBAL THOMAZ GOMES,  87, São Paulo",-23.529996,EE. MAJOR COSME DE FARIA,-46.411743,458ª; 467ª; 488ª; 513ª; 539ª; 563ª; 594ª; 628ª; 658ª; 684ª; 716ª; 742ª; 778ª; 803ª; 817ª; 881ª; 898ª; 921ª; 948ª;,GUAIANASES,353
4757,PARQUE AMERICA,"RUA ESTELA NAVES JUNQUEIRA, 79, São Paulo",-23.749211,EE. PRESIDENTE RENE MUAWAD,-46.679878,263ª; 271ª; 278ª; 295ª; 301ª; 313ª; 324ª; 331ª; 391ª; 417ª; 420ª; 437ª;,GRAJAÚ,371
7329,CASA VERDE ALTA,"RUA JOAQUIM AFONSO DE SOUZA, 355, São Paulo",-23.502765,EE. JOAQUIM NABUCO,-46.667175,Da 185ª à 202ª; 496ª;,CASA VERDE,255
6817,PARQUE DOS BANCARIOS,"RUA GUARANTÃ, S/N, São Paulo",-23.606936,EMEF. ARQUITETO VILANOVA ARTIGAS,-46.493969,Da 125ª à 142ª; 288ª;,TEOTÔNIO VILELA,421
3711,JARDIM DA SAUDE,"PRAÇA JOÃO RODRIGUES, 575, São Paulo",-23.621878,EMEF. JOSÉ MARIA LISBOA,-46.610012,Da 213ª à 215ª; 272ª; 288ª; 295ª; 311ª; 320ª; 332ª; 353ª; 361ª; 370ª;,CURSINO,413
803,SANTA CECILIA,"RUA SÃO VICENTE DE PAULA, 374, São Paulo",-23.535662,COLÉGIO EQUIPE,-46.676788,491ª; 501ª; 506ª; 509ª; 519ª;,PERDIZES,2
3393,VILA SANTANA,"RUA N. SRA. DE MONTE VERGINE, 63, São Paulo",-23.529996,COLÉGIO MONTE VIRGEM,-46.51474,247ª; 254ª; 259ª; 268ª; 273ª; 278ª; 280ª; 289ª; 320ª;,PENHA DE FRANÇA,252
4582,CHACARA INGLESA,"RUA CARLOS ALBERTO DA CUNHA MATTOS, 134, São Paulo",-23.490958,EMEF. PROF. GABRIEL PRESTES,-46.722794,Da 125ª à 136ª; 649ª;,PIRITUBA,325
5114,VILA AFONSO CELSO,"RUA DR. THIRSO MARTINS, 211, São Paulo",-23.605835,EE. LASAR SEGALL,-46.642456,Da 76ª à 87ª; 454ª; 592ª; 639ª; 673ª;,SAÚDE,259
6766,VILA NANCY,"RUA PORTO DO BEZERRA,  25, São Paulo",-23.538809,EMEF. ALEXANDRE DE GUSMAO,-46.41243,405ª; 412ª; Da 452ª à 453ª; 523ª; 554ª; 592ª; 633ª; 662ª; 691ª; 717ª; 744ª; 779ª; 808ª; 820ª; 879ª; 900ª; 946ª;,GUAIANASES,353
3700,GUAIANAZES,"RUA JOSÉ PINHEIRO BORGES,  60, São Paulo",-23.548881,CEU. JAMBEIRO,-46.39595,832ª; 834ª; 847ª; 852ª; 862ª; 869ª; 875ª; 891ª; 906ª; 917ª; 941ª; 962ª; 977ª;,GUAIANASES,353
2654,VILA BRASILANDIA,"RUA INTERATIVA, 100, São Paulo",-23.443246,EMEF. ERNANI SILVA BRUNO,-46.72039,Da 102ª à 104ª; 260ª; 283ª; 309ª; 329ª; 352ª;,PERUS,389
3317,CONJUNTO HABITACIONAL JOVA RURAL,"RUA JOSÉ MILTON BARBOSA, 138, São Paulo",-23.488439,EE. FELÍCIO TONETTI,-46.604862,449ª; 484ª; 505ª; 535ª; 559ª; 587ª; 592ª; 608ª; 616ª;,JAÇANÃ,349
4194,JORDANOPOLIS,"RUA LUIZ VIANA, 110, São Paulo",-23.697664,EE. PROF. JAYR DE ANDRADE,-46.701679,706ª; 728ª; 740ª; 757ª; 774ª; 784ª; 798ª; 814ª; 824ª; 840ª; 849ª;,CAPELA DO SOCORRO,280
4150,JARDIM GAIVOTAS,"AVENIDA SÃO PAULO, S/N, São Paulo",-23.76398,EE. LOTEAMENTO DAS GAIVOTAS 2,-46.685371,Da 741ª à 742ª; 750ª; 757ª; 765ª;,GRAJAÚ,371
5235,PARQUE DO CASTELO,"RUA ALCINDO FERREIRA, 2, São Paulo",-23.69955,EE. PADRE FRANCISCO JOÃO DE AZEVEDO,-46.704941,Da 56ª à 67ª; 615ª; 713ª; 746ª;,CAPELA DO SOCORRO,280
2115,JARDIM CENTENÁRIO,"AVENIDA FELIX ALVES PEREIRA, S/N, São Paulo",-23.500718,EMEBS. PROF. MÁRIO PEREIRA BICUDO,-46.66872,393ª; 397ª; 411ª; 418ª; 438ª; 440ª; 517ª;,CASA VERDE,255
2327,VILA DALVA,"RUA  BORIS ALEXANDRE, 189, São Paulo",-23.587902,EE. SAMUEL KLABIN,-46.784248,342ª; 368ª; 430ª; 448ª; 478ª; 498ª; 517ª; 567ª;,RIO PEQUENO,374
3043,VILA ISOLINA MAZZEI,"RUA NILO LUIS MAZZEI, 378, São Paulo",-23.510321,EE. DEPUTADO PEDRO COSTA,-46.588726,Da 192ª à 199ª; 329ª;,VILA MARIA,254
1180,VILA DA PAZ,"RUA JOÃO PAULO DA SILVA, 259, São Paulo",-23.701122,EMEI. DR. ALBERT SABIN,-46.686401,789ª; 815ª; 844ª; 871ª;,CAPELA DO SOCORRO,280
2268,JAÇANÃ,"RUA SÃO LUIZ GONZAGA, 62, São Paulo",-23.473009,EMEI. PROFA. OTTÍLIA DE JESUS PIRES,-46.583576,450ª; 462ª; 469ª; 482ª; 497ª; 521ª;,JAÇANÃ,349
7492,JAÇANÃ,"RUA ALCY BORGES DOS SANTOS, 242, São Paulo",-23.464506,EMEF. OCTÁVIO PEREIRA LOPES,-46.576881,15ª; Da 27ª à 38ª; 413ª; 421ª; 437ª; 464ª; 483ª; 501ª; 580ª;,JAÇANÃ,349
3329,JARDIM ROBRU,"RUA JOÃO MENDES DE CARVALHO, 40, São Paulo",-23.507015,EE. PROF. AMADOR DOS SANTOS FERNANDES,-46.410027,Da 87ª à 91ª; 274ª; 308ª; 324ª; 370ª;,JARDIM HELENA,397
1934,LIMOEIRO,"RUA DANIEL ARCIONI, 80, São Paulo",-23.50733,EE. REVERENDO JOSÉ BORGES DOS SANTOS JR.,-46.455688,Da 98ª à 100ª; 203ª; 224ª; 273ª; 292ª;,VILA JACUÍ,398
2925,VILA ARCADIA,"RUA ENÉIAS LUÍS CARLOS BARBANTI, 660, São Paulo",-23.491902,EMEF. PRESIDENTE NILO PEÇANHA,-46.701164,Da 198ª à 203ª; 494ª; 502ª;,NOSSA SENHORA DO Ó,327
47,ITAQUERA,"AV. MIGUEL IGNACIO CURI, 1311, São Paulo",-23.531097,UI-UNIDADE DE INTERNAÇÃO ITAQUERA - FUNDAÇÃO CASA,-46.439896,850ª.,ITAQUERA,248
1829,VILA VERDE,"RUA ORLANDO FRATUCCELLI, 150, São Paulo",-23.547937,EMEI VILA VERDE,-46.451569,815ª; 827ª; 842ª; 847ª; 854ª; 870ª;,ITAQUERA,248
6967,VILA PROGRESSO,"RUA INAJA GUAÇU, 13, São Paulo",-23.532986,EMEF. PADRE JOSÉ DE ANCHIETA,-46.445389,Da 435ª à 450ª; Da 516ª à 517ª;,ITAQUERA,248
4671,PARQUE BOTURUSSU,"AV. SÃO MIGUEL, 4.335, São Paulo",-23.50245,COLÉGIO CARLOS DRUMMOND DE ANDRADE,-46.489334,Da 306ª à 313ª; 536ª; 557ª; 559ª; 574ª; 618ª; 628ª;,ERMELINO MATARAZZO,326
5763,VILA RICA,"AV. DR. ASSIS RIBEIRO, 8.402, São Paulo",-23.490171,E.E. PROFª BENEDITA DE REZENDE,-46.493111,Da 1ª à 11ª; 580ª; 625ª; 645ª; 745ª;,ERMELINO MATARAZZO,326
4060,VILA SÃO FRANCISCO,"RUA ANTÔNIO DE TOLEDO LARA FILHO, 116, São Paulo",-23.526218,EE. PROFESSOR LUIZ GONZAGA DE CARVALHO MELO,-46.492081,Da 239ª à 248ª; 266ª; 340ª;,PONTE RASA,392
6758,VILA CURUÇÁ,"RUA JOÃO MAXIMIANO MAFRA, 6, São Paulo",-23.498357,EE. SHINQUICHI AGARI,-46.428566,388ª; 430ª; 437ª; 441ª; 457ª; 476ª; 492ª; 514ª; 534ª; 545ª; 571ª; 726ª; 737ª; 755ª; Da 759ª à 760ª; 762ª;,SÃO MIGUEL PAULISTA,247
7472,VILA MARIANA,"RUA COLÔNIA DA GLÓRIA, 536, São Paulo",-23.584441,EE. PROF. ROLDÃO LOPES DE BARROS,-46.62632,Da 273ª à 293ª.,VILA MARIANA,6
6304,PARQUE SAVOI CITY,"RUA VITALINO DOS SANTOS, 85, São Paulo",-23.561784,EE. DR. PAULO LAURO,-46.473885,Da 177ª à 191ª; 284ª;,PARQUE DO CARMO,417
4686,TERCEIRA DIVISÃO,"AV. SAPOPEMBA, 21964, São Paulo",-23.605363,EE. PROFA. RITA PINTO DE ARAÚJO,-46.416721,Da 38ª à 47ª; 296ª; 331ª;,CIDADE TIRADENTES,404
3251,COLONIA (ZONA LESTE),"ESTRADA DO PÊSSEGO, 1400, São Paulo",-23.56147,EE. PROFA. LINA DA COSTA COUTO,-46.479034,Da 162ª à 168ª; 243ª;,PARQUE DO CARMO,417
2760,VILA LIBANESA,"RUA PAULO DE LIMA CORREA, 65, São Paulo",-23.585699,EMEF. MAJOR SÍLVIO FLEMING,-46.563148,Da 330ª à 336ª; 356ª; 472ª;,VILA PRUDENTE,257
889,V DO ENCONTRO,"RUA EUDORA, 56, São Paulo",-23.65727,CEI. HELENA IRACY JUNQUEIRA,-46.637909,454ª; 470ª; 511ª;,JABAQUARA,320
2971,VILA SANTA CLARA,"RUA SÍLVIO DE SOUSA, 259, São Paulo",-23.584913,COLÉGIO PARQUE SEVILHA,-46.571217,361ª; 379ª; 389ª; 414ª; 424ª; 428ª; 438ª; 452ª;,VILA PRUDENTE,257
6921,JARDIM UMUARAMA,"AVENIDA INTERLAGOS, 1.329, São Paulo",-23.67377,UNIVERSIDADE IBIRAPUERA,-46.652756,Da 592ª à 593ª; Da 595ª à 596ª; 598ª; 601ª; 603ª; 606ª; 608ª; 610ª; 613ª; 615ª; 620ª; Da 640ª à 641ª; Da 644ª à 645ª; 647ª; 714ª;,CIDADE ADEMAR,351
1475,CIDADE JULIA,"AV. FRANCESCO MARIA MELANI, S/N, São Paulo",-23.665909,EMEF. PROF. LILIANE VERZINI SILVA,-46.673012,712ª; 718ª; 720ª; 722ª; 726ª; 730ª; 735ª;,CIDADE ADEMAR,351
3545,CHÁCARA COCAIA,"RUA TUPINAMBÁS, 71, São Paulo",-23.751411,EE. OTONIEL ASSIS DE HOLANDA,-46.711807,371ª; 375ª; 377ª; 385ª; 395ª; 400ª; 415ª; 423ª; 437ª; 446ª;,PARELHEIROS,381
6479,JARDIM UMARIZAL,"RUA JARACATIA, 488, São Paulo",-23.626911,EMEF. MINISTRO SYNÉSIO ROCHA,-46.761932,Da 81ª à 92ª; 522ª; 537ª; 553ª; 823ª; 847ª; 864ª;,CAMPO LIMPO,328
6431,PARQUE GRAJAU,"RUA MIRAFLORES, 95, São Paulo",-23.758324,EE. PROFA. MARIA JUVENAL HOMEM DE MELLO,-46.693954,259ª; Da 285ª à 286ª; 305ª; 321ª; 337ª; 354ª; 368ª; 387ª; 406ª; 434ª; 467ª; 496ª; 526ª; 543ª; 548ª;,GRAJAÚ,371
2379,CAXINGUI,"PRAÇA IMPRENSA PAULISTA, 30, São Paulo",-23.599228,EMEF. MAL. DEODORO DA FONSECA,-46.711807,Da 504ª à 505ª; Da 507ª à 508ª; 536ª; 574ª;,BUTANTÃ,346
37,PIRITUBA,"RUA STEFANO MAUSER, 651, São Paulo",-23.47335,INTERNATO PIRITUBA,-46.735939,662ª.,PIRITUBA,325
4271,FERREIRA,"RUA DR. ADOLPHO DE MELLO JÚNIOR, 156, São Paulo",-23.605992,EE. THOMAZIA MONTORO,-46.719189,Da 68ª à 78ª.,BUTANTÃ,346
5642,VILA ELZE,"RUA CORONEL AUGUSTO CELSO DE MOURA,78, São Paulo",-23.604262,EMEF. ALTINO ARANTES,-46.529846,Da 142ª à 154ª; 384ª; 616ª; 633ª;,SAPOPEMBA,350
6559,JARDIM IMBE,"RUA FRANCISCO DE ABREU,S/N, São Paulo",-23.674084,EE. PROFESSORA DAVINA AGUIAR DIAS,-46.780472,Da 153ª à 169ª; 608ª;,CAPÃO REDONDO,373
2602,VILA CAMPANELA,"RUA PIERRE JANSEN, 40, São Paulo",-23.521811,EMEI EVARISTO DA VEIGA,-46.496887,Da 187ª à 193ª; 312ª;,PONTE RASA,392
4870,JARDIM SANTA LUCRECIA,"RUA VALE DAS FLORES, 120, São Paulo",-23.455688,EMEF. ERNESTO MORAES LEME,-46.739273,Da 125ª à 129ª; 136ª; 140ª; 144ª; 147ª; 151ª; 196ª; 225ª; 238ª; 245ª; 251ª;,JARAGUÁ,403
9680,IPIRANGA,"RUA SILVA BUENO, 1412, São Paulo",-23.590839,EE. VISCONDE DE ITAÚNA,-46.601509,Da 1ª à 25ª.,IPIRANGA,260
2224,PARQUE GRAJAU,"RUA JOSÉ BEZERRA FILHO, 62, São Paulo",-23.74848,COLÉGIO SANTA RITA DE CÁSSIA,-46.686249,Da 47ª à 52ª.,GRAJAÚ,371
5401,VILA NOVA CURUÇÁ,"RUA ANANAÍ, 968, São Paulo",-23.522619,EMEF. JOÃO RIBEIRO DE BARROS,-46.418991,Da 692ª à 706ª; 750ª;,SÃO MIGUEL PAULISTA,247
3103,PARQUE SEVILHA,"RUA MADRID, 550, São Paulo",-23.575983,EMEF. BARÃO DE MAUÁ,-46.570511,Da 73ª à 80ª; 471ª;,VILA PRUDENTE,257
6075,GRAJAU,"RUA SÃO JOSÉ DO RIO PRETO, 71, São Paulo",-23.753302,EE. SAMUEL WAINER,-46.682762,Da 16ª à 32ª; 631ª;,GRAJAÚ,371
4465,VILA JACUÍ,"RUA JAIME BARCELOS, 535, São Paulo",-23.501255,EE. TIDE SETÚBAL,-46.448689,Da 101ª à 111ª; 230ª;,VILA JACUÍ,398
5251,JARDIM SAPOPEMBA,"AV. JOÃO RODRIGUES RUIZ, 248, São Paulo",-23.610556,EM. OLIVAL COSTA,-46.493862,Da 79ª à 93ª.,TEOTÔNIO VILELA,421
1020,VILA JAGUARA,"RUA PAÚVA, 677, São Paulo",-23.51362,EMEI PEDRO DE TOLEDO,-46.74675,353ª; 359ª; 397ª;,LAPA,250
376,PARQUE NOVO MUNDO,"RUA SARGENTO JETER AUGUSTO PEREIRA, 121, São Paulo",-23.51228,CEI MÁRIO DA COSTA BARBOSA,-46.566319,439ª; 470ª;,VILA MARIA,254
3872,IPIRANGA,"RUA GREENFELD, 130, São Paulo",-23.601452,EE. PROF. JOSÉ ESCOBAR,-46.60247,Da 137ª à 146ª.,IPIRANGA,260
1727,JARDIM VERÔNIA,"RUA JAN LAND, 14, São Paulo",-23.48525,E.M.E.I. PROFª DINAH GALVÃO,-46.492573,Da 767ª à 768ª; 776ª; 786ª; 793ª;,ERMELINO MATARAZZO,326
4565,JARDIM PIRAJUSSARA,"RUA FRANCISCO PEIXOTO, 54, São Paulo",-23.634728,EE. PRESIDENTE KENNEDY,-46.770687,Da 17ª à 28ª.,CAMPO LIMPO,328
6741,VILA PROGREDIOR,"AV. JORGE JOÃO SAAD, 905, São Paulo",-23.594036,COLÉGIO MIGUEL DE CERVANTES,-46.720455,Da 31ª à 46ª; 609ª;,BUTANTÃ,346
5318,JARDIM MARIA AMALIA,"RUA SATÉLITE JAPETUS, 30, São Paulo",-23.77231,EE. DAVID ZEIGER,-46.714775,Da 129ª à 143ª.,PARELHEIROS,381
9032,JARDIM SAO JOAO,"RUA PIETRO CASELLA, S/N, São Paulo",-23.66069,EE. ANTÔNIO MANOEL ALVES DE LIMA,-46.737041,Da 56ª à 71ª; 273ª; 297ª;,JARDIM SÃO LUÍS,408
5359,JARDIM BRASIL,"RUA DORÂNDIA, 158, São Paulo",-23.477671,ESCOLA ESTADUAL PROVÍNCIA DE NAGASAKI,-46.571678,Da 219ª à 232ª; 315ª;,VILA SABRINA,420
608,VILA NOVA CURUÇÁ,"RUA GAIVÃO, 177, São Paulo",-23.518352,EE. VILA NOVA CURUÇÁ,-46.420074,745ª; 749ª; 769ª; 779ª;,SÃO MIGUEL PAULISTA,247
5346,ALTO DE PINHEIROS,"AVENIDA PEDROSO DE MORAIS, 1341, São Paulo",-23.560101,COLÉGIO PALMARES,-46.695251,Da 27ª à 38ª; 244ª; 303ª;,PINHEIROS,251
4335,VILA BANDEIRANTES,"RUA ZILDA, 193, São Paulo",-23.498011,EMEF. DONA ANGELINA MAFFEI VITA,-46.661289,Da 158ª à 169ª; 521ª;,CASA VERDE,255
4933,VILA RUBI,"RUA JOAQUIM DOS SANTOS, 539, São Paulo",-23.72488,EE. JERÔNYMO MONTEIRO,-46.698521,Da 377ª à 388ª; 836ª;,CAPELA DO SOCORRO,280
273,JARDIM DA CONQUISTA,"RUA ARGÉLIA, S/N., São Paulo",-23.417179,EMEF RECANTO DOS HUMILDES,-46.746311,412ª; 455ª; 473ª;,PERUS,389
7023,VILA SEABRA,"RUA TIETÊ, 49, São Paulo",-23.490929,EE. MÁRIO KOZEL FILHO,-46.407574,Da 110ª à 127ª.,JARDIM HELENA,397
3611,JARAGUA,"AV. JERIMANDUBA, S/N, São Paulo",-23.45499,EE. PROFA. ISABEL VIEIRA DE SERPA E PAIVA,-46.747452,Da 59ª à 67ª.,JARAGUÁ,403
6510,BELA VISTA,"AV. BRIG. LUÍS ANTÔNIO, 1373, São Paulo",-23.56114,FMU (PRÉDIO 40) - BRIGADEIRO,-46.64381,Da 129ª à 130ª; 359ª; 391ª; 402ª; 409ª; 416ª; 420ª; 424ª; 430ª; 433ª; 437ª; Da 440ª à 441ª; 443ª; Da 446ª à 447ª; 492ª; Da 496ª à 497ª; 508ª;,BELA VISTA,1
8475,BELA VISTA,"AV. BRIGADEIRO LUÍS ANTONIO, 871, São Paulo",-23.5576,ANHANGUERA,-46.640758,Da 50ª à 55ª; Da 113ª à 128ª;,BELA VISTA,1
12691,HIGIENOPOLIS,"AV. HIGIENÓPOLIS, 996, São Paulo",-23.540991,COLÉGIO RIO BRANCO,-46.660751,Da 181ª à 209ª; 364ª; 434ª; 445ª; 450ª;,BELA VISTA,1
10789,LIBERDADE,"AV. LIBERDADE, 532, São Paulo",-23.883535,FECAP - LIBERDADE,-46.641064,Da 260ª à 289ª; 387ª; 404ª; 418ª;,BELA VISTA,1
9239,BELA VISTA,"AV. PAULISTA, 227, São Paulo",-23.56978,EE RODRIGUES ALVES,-46.646458,Da 28ª à 49ª; 363ª; 371ª;,BELA VISTA,1
11090,BELA VISTA,"AV. PAULISTA, 900, São Paulo",-23.56542,COLÉGIO OBJETIVO,-46.651482,Da 1ª à 27ª; 355ª; 361ª;,BELA VISTA,1
72,JARDIM QUISISANA,"RUA JEAN LACOME 78, São Paulo",-23.503552,INTERNATO VILA CONCEIÇÃO,-46.404877,359ª.,JARDIM HELENA,397
12267,LIBERDADE,"AVENIDA DA LIBERDADE, 749, São Paulo",-23.5592,FMU (PRÉDIO 17) - FACULDADE DIREITO LIBERDADE,-46.637508,Da 98ª à 112ª; Da 322ª à 329ª; Da 377ª à 378ª; 381ª; 392ª; 432ª; 452ª; 456ª; 463ª; 465ª; 468ª; 470ª; 472ª; 475ª; 477ª; 486ª;,BELA VISTA,1
8085,LIBERDADE,"AVENIDA LIBERDADE, 899, São Paulo",-23.558969,FMU (PRÉDIO 16) - LIBERDADE,-46.632881,Da 302ª à 321ª; 360ª; Da 365ª à 368ª; 384ª; Da 488ª à 489ª;,BELA VISTA,1
7259,SE,"LARGO SÃO FRANCISCO, 19, São Paulo",-23.549751,FECAP - SÃO FRANCISCO,-46.636658,Da 345ª à 354ª; 357ª; 374ª; 385ª; 395ª; 422ª; 453ª; 455ª; 467ª; 473ª; 478ª;,BELA VISTA,1
6208,SE,"LARGO SÃO FRANCISCO, 95, São Paulo",-23.549706,USP - FACULDADE DE DIREITO,-46.636829,Da 330ª à 344ª; 396ª; 415ª;,BELA VISTA,1
3681,SE,"PRAÇA DR. MÁRIO MARGARIDO, 35, São Paulo",-23.554451,EMEF DUQUE DE CAXIAS,-46.628899,399ª; 411ª; 427ª; 439ª; 442ª; 449ª; 457ª; 459ª; 461ª; 487ª; 491ª; 495ª; 507ª;,BELA VISTA,1
7865,CONSOLACAO,"RUA DA CONSOLAÇÃO, 1289, São Paulo",-23.549851,EE PROFESSORA MARINA CINTRA,-46.653419,Da 210ª à 226ª; 356ª; 369ª; Da 372ª à 373ª;,BELA VISTA,1
3088,CONSOLACAO,"RUA DA CONSOLAÇÃO, 881, São Paulo",-23.548309,PUC COGEAE,-46.649841,462ª; 464ª; 466ª; 469ª; 471ª; 474ª; 476ª; 479ª; 490ª; 504ª;,BELA VISTA,1
5944,BELA VISTA,"RUA HUMAITÁ, 480, São Paulo",-23.55724,EMEF CELSO LEITE RIBEIRO FILHO,-46.642078,Da 56ª à 70ª; 406ª;,BELA VISTA,1
18185,HIGIENOPOLIS,"RUA ITAMBÉ, 135, São Paulo",-23.546341,MACKENZIE,-46.652962,Da 140ª à 180ª; 358ª; 389ª; 398ª; 400ª; 405ª; 412ª; 417ª; 419ª; 423ª; 428ª; 431ª; 435ª; 458ª;,BELA VISTA,1
9422,CONSOLACAO,"RUA JOÃO GUIMARÃES ROSA, 111, São Paulo",-23.54953,EE CAETANO DE CAMPOS,-46.647011,Da 227ª à 251ª.,BELA VISTA,1
6318,BELA VISTA,"RUA JOÃO PASSALACQUA, 207, São Paulo",-23.560801,COLÉGIO JOÃO E RAPHAELA PASSALACQUA,-46.640831,Da 87ª à 97ª; 393ª; 410ª; 421ª; 429ª; 438ª; 460ª;,BELA VISTA,1
3836,BELA VISTA,"RUA MAJOR DIOGO, 200, São Paulo",-23.552891,EE DRA. MARIA AUGUSTA SARAIVA,-46.64333,Da 131ª à 139ª; 390ª; 413ª;,BELA VISTA,1
5345,CONSOLACAO,"RUA MARQUÊS DE PARANAGUÁ, 111, São Paulo",-23.54936,PUC - FACULDADE DE CIÊNCIAS EXATAS E TECNOLOGIA,-46.650188,Da 252ª à 259ª; 375ª; 383ª; 388ª; 408ª; 426ª; 448ª; 451ª;,BELA VISTA,1
8892,LIBERDADE,"RUA SÃO JOAQUIM, 320, São Paulo",-23.561655,EE PRESIDENTE ROOSEVELT,-46.635506,Da 290ª à 301ª; 362ª; 370ª; 376ª; Da 379ª à 380ª; 382ª; 397ª; 403ª; 414ª; 425ª; 436ª; 444ª; 454ª;,BELA VISTA,1
3396,BARRA FUNDA,"ALAMEDA BARÃO DE LIMEIRA,1379, São Paulo",-23.530251,INSTITUTO EDUCACIONAL BONI CONSILII,-46.65102,Da 76ª à 84ª; 355ª; 365ª;,PERDIZES,2
6070,SANTA CECILIA,"ALAMEDA BARROS, 539, São Paulo",-23.536669,EXTERNATO CASA PIA,-46.656044,Da 173ª à 188ª; 419ª;,PERDIZES,2
2289,CAMPOS ELISEOS,"ALAMEDA CLEVELAND, 331, São Paulo",-23.532471,ESCOLA ESTADUAL JOÃO KOPKE,-46.641659,372ª; 377ª; 409ª; 430ª; 462ª; 484ª; 502ª;,PERDIZES,2
7538,CAMPOS ELISEOS,"ALAMEDA DINO BUENO, 383, São Paulo",-23.53137,LICEU CORAÇÃO DE JESUS,-46.64373,Da 111ª à 135ª; 360ª; 364ª;,PERDIZES,2
6239,AGUA BRANCA,"AV. FRANCISCO MATARAZZO, 364, São Paulo",-23.53005,UNINOVE - UNIVERSIDADE NOVE DE JULHO,-46.666851,Da 85ª à 94ª; 361ª; 439ª; 454ª; 467ª; 486ª; 498ª; 505ª; 517ª; 522ª;,PERDIZES,2
10227,AGUA BRANCA,"AV. FRANCISCO MATARAZZO, 913, São Paulo",-23.527666,COLÉGIO DAS AMÉRICAS,-46.671692,Da 1ª à 27ª; 342ª; 369ª; 435ª;,PERDIZES,2
5903,SANTA CECILIA,"AVENIDA ANGÉLICA, 352, São Paulo",-23.53606,COLÉGIO OSWALDO CRUZ,-46.654221,Da 189ª à 203ª; 450ª;,PERDIZES,2
3814,AGUA BRANCA,"AVENIDA FRANCISCO MATARAZZO, 385, São Paulo",-23.530167,ASSOCIAÇÃO CÍVICA FEMININA,-46.667194,Da 64ª à 69ª; 354ª; Da 356ª à 357ª; 359ª; 367ª; 520ª;,PERDIZES,2
6682,HIGIENOPOLIS,"AVENIDA HIGIENÓPOLIS, 983, São Paulo",-23.540833,COLÉGIO NOSSA SENHORA DO SION,-46.660747,375ª; 387ª; 395ª; 400ª; 405ª; 414ª; 421ª; 437ª; 446ª; 461ª; 464ª; 468ª; 471ª; 475ª; Da 478ª à 479ª; 482ª; 485ª; 503ª;,PERDIZES,2
7044,BELA VISTA,"RUA TREZE DE MAIO, 267, São Paulo",-23.568393,EE MARIA JOSÉ,-46.641083,Da 71ª à 86ª; 394ª; 401ª; 407ª; 493ª;,BELA VISTA,1
9086,HIGIENOPOLIS,"RUA ALAGOAS, 903, São Paulo",-23.544741,FAAP - FUNDAÇÃO ARMANDO ÁLVARES PENTEADO,-46.662479,Da 136ª à 152ª; 363ª; 385ª; 442ª; 455ª; 460ª; 488ª; 490ª; 492ª; 518ª;,PERDIZES,2
5794,SUMARE,"RUA ALEGRETE, 168, São Paulo",-23.54796,COLÉGIO NOTRE DAME,-46.680119,Da 260ª à 270ª; 371ª; 428ª; 438ª; 441ª; 452ª;,PERDIZES,2
727,BARRA FUNDA,"RUA ANHANGUERA, 484, São Paulo",-23.523232,CENTRO EDUCACIONAL E ESPORTIVO ''RAUL TABAJARA'',-46.652702,373ª; 382ª; 432ª;,PERDIZES,2
1280,HIGIENOPOLIS,"RUA BAHIA, 257, São Paulo",-23.54534,EMEI. MONTEIRO LOBATO,-46.659752,379ª; 411ª; 423ª; 443ª;,PERDIZES,2
10994,BARRA FUNDA,"RUA BRIGADEIRO GALVÃO, 540, São Paulo",-23.53095,FACULDADES OSWALDO CRUZ,-46.6567,Da 204ª à 230ª; 340ª; 346ª; 348ª; 350ª; 515ª;,PERDIZES,2
4193,PERDIZES,"RUA CAJAÍBA, 420, São Paulo",-23.53871,ESCOLA ESTADUAL BRIGADEIRO FARIA LIMA,-46.685322,Da 328ª à 339ª.,PERDIZES,2
5529,BARRA FUNDA,"RUA CONSELHEIRO BROTERO, 100, São Paulo",-23.528444,ESCOLA ESTADUAL DOUTOR ALARICO SILVEIRA,-46.655552,Da 95ª à 110ª; 341ª; 374ª;,PERDIZES,2
3660,PERDIZES,"RUA DIANA, 1071, São Paulo",-23.537441,ESCOLA ESTADUAL JOSÉ CÂNDIDO DE SOUZA,-46.684071,344ª; 347ª; 351ª; 370ª; 378ª; 425ª; 429ª; 433ª; 445ª; 451ª;,PERDIZES,2
3143,PERDIZES,"RUA DIANA, 250, São Paulo",-23.530741,EMEI. SANTOS DUMONT,-46.679562,380ª; 386ª; Da 389ª à 390ª; 403ª; 408ª; 410ª; 412ª; 416ª;,PERDIZES,2
739,PERDIZES,"RUA DR. EMÍLIO RIBAS, 89, São Paulo",-23.536039,FACULDADE SANTA MARCELINA,-46.665169,510ª; Da 512ª à 514ª;,PERDIZES,2
7355,SANTA CECILIA,"RUA IMACULADA CONCEICAO, 71, São Paulo",-23.539084,ESCOLA ESTADUAL PROFESSOR FIDELINO DE FIGUEIREDO,-46.653053,Da 153ª à 172ª.,PERDIZES,2
2062,SANTA CECILIA,"RUA JAGUARIBE, 354, São Paulo",-23.5415,ESCOLA ESTADUAL ARTHUR GUIMARÃES,-46.651295,362ª; 376ª; 393ª; 404ª; 447ª; 487ª; 521ª;,PERDIZES,2
3371,SANTA CECILIA,"RUA MARTIM FRANCISCO, 736, São Paulo",-23.543093,COLÉGIO FACULDADE CLARETIANO,-46.654407,384ª; 392ª; 399ª; 407ª; 418ª; 424ª; 427ª; 436ª; 448ª; 489ª; 507ª;,PERDIZES,2
16421,PERDIZES,"RUA MONTE ALEGRE, 984, São Paulo",-23.538271,PUC - PONTIFÍCIA UNIVERSIDADE CATÓLICA,-46.670681,Da 28ª à 63ª; 345ª; 349ª; Da 352ª à 353ª; 368ª; 434ª; 440ª; 453ª; 499ª;,PERDIZES,2
9322,PERDIZES,"RUA PADRE CHICO, 420, São Paulo",-23.528912,ESCOLA ESTADUAL PROFESSORA ZULEIKA DE BARROS MARTINS FERREIRA,-46.683468,Da 303ª à 327ª.,PERDIZES,2
2905,VARZEA DA BARRA FUNDA,"RUA SOLIMÕES, 460, São Paulo",-23.52074,ESCOLA ESTADUAL CANUTO DO VAL,-46.65633,Da 70ª à 75ª; 343ª; 366ª; 472ª;,PERDIZES,2
3737,BARRA FUNDA,"RUA VITORINO CARMILO, 621, São Paulo",-23.531799,ESCOLA ESTADUAL CONSELHEIRO ANTONIO PRADO,-46.65229,Da 231ª à 242ª.,PERDIZES,2
3083,PARI,"AV. DR. CARLOS DE CAMPOS, 841, São Paulo",-23.525471,EE. FREI PAULO LUIG,-46.610619,Da 182ª à 189ª.,SANTA IFIGÊNIA,3
8391,LUZ,"AV. TIRADENTES, 615, São Paulo",-23.883215,FATEC FACULDADE DE TECNOLOGIA DE SÃO PAULO,-46.641293,Da 36ª à 51ª; 198ª; Da 203ª à 205ª; 208ª; 210ª;,SANTA IFIGÊNIA,3
5932,VILA ANGLO BRASILEIRA,"RUA PEDRO SOARES DE ALMEIDA, 134, São Paulo",-23.541642,ESCOLA ESTADUAL PROFESSOR MAURO DE OLIVEIRA,-46.666489,Da 243ª à 259ª; 358ª;,PERDIZES,2
6696,PERDIZES,"RUA DR. ALBERTO TORRES, S/N, PORTÃO 1, São Paulo",-23.540698,COLÉGIO SANTA MARCELINA,-46.673012,383ª; 388ª; 391ª; Da 396ª à 397ª; 401ª; 406ª; 413ª; 417ª; 420ª; 422ª; 431ª; 444ª; 457ª; 463ª; 465ª; 469ª; 473ª; 476ª; 480ª;,PERDIZES,2
4919,VILA POMPEIA,"RUA CORONEL MELO OLIVEIRA, 175, São Paulo",-23.534717,COLÉGIO SAGRADO CORAÇÃO DE JESUS,-46.660309,Da 271ª à 281ª; 456ª;,PERDIZES,2
4864,VILA POMPEIA,"RUA CORONEL MELO OLIVEIRA, 867, São Paulo",-23.539281,COLÉGIO EMECE JARDIM ESCOLA O MUNDO DA CRIANÇA LTDA,-46.651554,449ª; Da 458ª à 459ª; 466ª; 470ª; 474ª; 477ª; 481ª; 483ª; 500ª; 504ª; 508ª; 511ª; 516ª;,PERDIZES,2
7310,VILA POMPEIA,"RUA PADRE CHICO, 102, São Paulo",-23.53818,ESCOLA ESTADUAL MISS BROWNE,-46.660824,Da 282ª à 302ª.,PERDIZES,2
5555,BOM RETIRO,"PRAÇA CORONEL FERNANDO PRESTES, 197, São Paulo",-23.530779,EE. PRUDENTE DE MORAES,-46.632916,Da 22ª à 35ª; 214ª;,SANTA IFIGÊNIA,3
4799,BRAS,"RUA ALMIRANTE BARROSO, 225, São Paulo",-23.537178,EE. EDUARDO PRADO,-46.612534,Da 129ª à 140ª; 217ª; 221ª; 226ª;,SANTA IFIGÊNIA,3
4180,CANINDE,"RUA CANINDÉ, 153, São Paulo",-23.533035,EE. ORESTES GUIMARÃES,-46.624043,Da 172ª à 181ª; 201ª;,SANTA IFIGÊNIA,3
1813,CANINDE,"RUA COMENDADOR NESTOR PEREIRA, 285, São Paulo",-23.524561,EMEF. INFANTE DOM HENRIQUE,-46.619228,Da 190ª à 194ª.,SANTA IFIGÊNIA,3
35,BRAS,"RUA CORONEL MURSA, 270, São Paulo",-23.548229,UNIDADE DE INTERNAÇÃO PROVISÓRIA,-46.615501,228ª.,SANTA IFIGÊNIA,3
5697,BRAS,"RUA DA FIGUEIRA, 500, São Paulo",-23.55298,EE. DE SÃO PAULO,-46.625141,Da 52ª à 56ª; Da 91ª à 97ª; 212ª; Da 223ª à 224ª;,SANTA IFIGÊNIA,3
6190,BOM RETIRO,"RUA DOS ITALIANOS, 405, São Paulo",-23.526527,EE. MARECHAL DEODORO,-46.642929,Da 76ª à 90ª; 199ª;,SANTA IFIGÊNIA,3
6092,BRAS,"RUA MONSENHOR DE ANDRADE, 298, São Paulo",-23.49017,SENAI,-46.718502,Da 98ª à 114ª.,SANTA IFIGÊNIA,3
8100,LUZ,"RUA PEDRO VICENTE, 625, São Paulo",-23.52524,INSTITUTO FEDERAL,-46.621792,Da 158ª à 171ª; 206ª; 216ª; Da 218ª à 220ª; 222ª; 225ª; 227ª;,SANTA IFIGÊNIA,3
6109,BOM RETIRO,"RUA PRATES, 790, São Paulo",-23.52722,ESCOLA LUBAVITCH,-46.635132,Da 14ª à 21ª; Da 57ª à 64ª;,SANTA IFIGÊNIA,3
4645,BOM RETIRO,"RUA TRES RIOS, 362, São Paulo",-23.52902,COLÉGIO DE SANTA INÊS,-46.637291,Da 65ª à 75ª; 213ª;,SANTA IFIGÊNIA,3
4175,BRAS,"RUA VINTE E UM DE ABRIL, 970, São Paulo",-23.542151,EE. DOMINGOS FAUSTINO SARMIENTO,-46.605728,Da 141ª à 151ª; 211ª;,SANTA IFIGÊNIA,3
188,BELEM,"AV. CONDESSA ELIZABETH ROBIANO, 450, São Paulo",-23.507799,F. CASA - CENT. DE AT. SOCIOEDUC. AO ADOL. UNID. DE INT. V. GUILHERME,-46.551102,420ª.,MOÓCA,4
188,BELEM,"AV. CONDESSA ELIZABETH ROBIANO, 450, São Paulo",-23.507799,FUND. CASA CENTRO DE ATEN. SOCIOEDUC. AO ADOL. UNID. DE INT. SÃO PAULO,-46.551102,416ª.,MOÓCA,4
188,BELEM,"AV. CONDESSA ELIZABETH ROBIANO, 450, São Paulo",-23.507799,FUND. CASA - CENTRO DE ATEND. SOCIOEDUC. AO ADOL. UNID. DE INT. BELÉM,-46.551102,419ª.,MOÓCA,4
6324,MOOCA,"AV. PAES DE BARROS, 1025, São Paulo",-23.579315,EE. PANDIÁ CALÓGERAS,-46.587135,Da 110ª à 125ª.,MOÓCA,4
3364,VILA REGENTE FEIJO,"AV. REGENTE FEIJÓ, 586, São Paulo",-23.557526,EE. PROF. THEODORO DE MORAES,-46.572414,Da 175ª à 182ª; 324ª;,MOÓCA,4
4863,VILA INVERNADA,"RUA ALMIRANTE  ALEXANDRINO, 541, São Paulo",-23.57127,EMEF. EMILIANO DI CAVALCANTI,-46.568424,Da 197ª à 207ª; Da 325ª à 326ª;,MOÓCA,4
4071,VILA REGENTE FEIJO,"RUA AURELIANO LESSA, 159, São Paulo",-23.556942,COLÉGIO NOSSA SENHORA DE LOURDES,-46.574635,Da 170ª à 174ª; 323ª; 336ª; 352ª; 363ª; 398ª; 425ª;,MOÓCA,4
7142,VILA REGENTE FEIJO,"RUA BOM JESUS, 909, São Paulo",-23.563889,EE. PROF. WOLNY CARVALHO RAMOS,-46.56955,Da 183ª à 196ª; 316ª; 335ª; 409ª; 422ª; 431ª;,MOÓCA,4
8700,MOOCA,"RUA BRESSER 2909, São Paulo",-23.553322,ETE. PROF. CAMARGO ARANHA,-46.598221,Da 31ª à 47ª; 368ª; 374ª; 379ª; 382ª; 388ª; 397ª;,MOÓCA,4
4527,BRAS,"RUA CATUMBI, 318, São Paulo",-23.535339,CONJUNTO EDUC. E ASSISTENCIAL ANTÔNIO DEVISATE - SESI,-46.60001,Da 282ª à 291ª; 339ª; 410ª; 427ª;,MOÓCA,4
8141,MOOCA,"RUA CLARK, 213, São Paulo",-23.55521,COLÉGIO SÃO JUDAS TADEU,-46.597729,Da 48ª à 62ª; 306ª; 314ª; Da 320ª à 321ª; 331ª; 350ª;,MOÓCA,4
188,BELEM,"RUA CONDESSA ELIZABETH ROBIANO, 450, São Paulo",-23.507799,FUND. CASA CENTRO DE ATEN. SOCIOEDU. AO ADOL. UNID. DE INT. BELA VISTA,-46.551102,418ª.,MOÓCA,4
8341,ALTO DA MOOCA,"RUA CUIABÁ, 667, São Paulo",-23.560585,ESCOLA ESTADUAL M.M.D.C.,-46.59008,Da 93ª à 109ª; 304ª; 309ª; 407ª; 412ª;,MOÓCA,4
6361,BRAS,"RUA VISCONDE DE ABAETÉ, 154, São Paulo",-23.545104,EE. PADRE ANCHIETA,-46.61911,Da 115ª à 128ª; 200ª; 202ª; 207ª; 209ª;,SANTA IFIGÊNIA,3
5128,MOOCA,"RUA DA MOOCA, 363, São Paulo",-23.5536,EE. PROF. ANTONIO FIRMINO DE PROENÇA,-46.620258,Da 1ª à 15ª.,MOÓCA,4
7126,MOOCA,"RUA DA MOOCA, 4650, São Paulo",-23.561964,EE. PROF. ANDRÉ XAVIER GALLICHO,-46.581432,Da 136ª à 152ª; 408ª;,MOÓCA,4
7906,ALTO DA MOOCA,"RUA DO ORATÓRIO, 2621, São Paulo",-23.570103,EXTERNATO NOSSA SENHORA MENINA,-46.581173,Da 153ª à 169ª; 303ª; 315ª; 414ª;,MOÓCA,4
3985,MOOCA,"RUA DR. ALMEIDA LIMA, 1134, São Paulo",-23.551714,UNIVERSIDADE ANHEMBI MORUMBI,-46.610325,343ª; 346ª; 354ª; 366ª; 370ª; 378ª; 387ª; 394ª; 404ª; 413ª; 429ª; 433ª;,MOÓCA,4
5784,PARQUE DA MOOCA,"RUA IBIPETUBA, 42, São Paulo",-23.575706,INST. LUSO-BRAS. DE EDUC. E CULT- CENTRO UNIV. CAPITAL,-46.586948,Da 126ª à 135ª; 312ª; 337ª; 355ª; 392ª; 400ª;,MOÓCA,4
2437,MOOCA,"RUA ITAPIRA, 183, São Paulo",-23.553165,EE. GIANFRANCESCO GUARNIERI,-46.621689,Da 16ª à 22ª; 308ª;,MOÓCA,4
5807,ALTO DA MOOCA,"RUA ITAQUERI, 372, São Paulo",-23.551241,EE. DR. ANTÔNIO DE QUEIROZ TELLES,-46.583977,Da 63ª à 77ª.,MOÓCA,4
37,PARQUE DA MOOCA,"RUA JAPURUCHITÁ, 300, São Paulo",-23.57027,FUND. CASA - UNID. FEM. DE INT. PROVISÓRIA E INT. CHIQUINHA GONZAGA,-46.58556,415ª.,MOÓCA,4
5826,CHACARA TATUAPE,"RUA MARQUES DE ABRANTES, 365, São Paulo",-23.53908,COLÉGIO AGOSTINIANO SÃO JOSÉ,-46.58493,Da 292ª à 302ª; 305ª; 319ª; 338ª; 411ª;,MOÓCA,4
8502,MOOCA,"RUA MARQUÊS DE VALENÇA, 641, São Paulo",-23.559826,COLÉGIO SANTA CATARINA,-46.589356,341ª; 345ª; 348ª; 351ª; 353ª; 359ª; 362ª; 367ª; Da 372ª à 373ª; 377ª; 380ª; 383ª; 386ª; 389ª; 393ª; 396ª; 399ª; 402ª; 405ª; 424ª; 426ª; 432ª;,MOÓCA,4
6535,BELENZINHO,"RUA PASSOS, 36, São Paulo",-23.537479,INSTITUTO NOSSA  SENHORA AUXILIADORA,-46.593719,Da 277ª à 281ª; 330ª; 342ª; 347ª; 357ª; 361ª; 371ª; 375ª; 381ª; 385ª; 390ª; 395ª; 401ª; 430ª;,MOÓCA,4
4585,CHACARA MAFALDA,"RUA PAULINA, 149, São Paulo",-23.571739,EE. PROFA. ANNA TEIXEIRA PRADO ZACHARIAS,-46.55957,Da 225ª à 234ª; 403ª; 417ª;,MOÓCA,4
4705,VILA INVERNADA,"RUA PLÁCIDO DE CASTRO, 221, São Paulo",-23.567328,EE. ISAÍ LEIRNER,-46.565418,Da 208ª à 214ª; 327ª; 334ª; 369ª; 376ª; 384ª;,MOÓCA,4
5669,VILA DIVA,"RUA RAIMUNDO CORREIA, 5, São Paulo",-23.571592,EMEF. LEONOR MENDES DE BARROS,-46.563595,Da 215ª à 224ª; 311ª; 318ª; 333ª; 340ª; 358ª;,MOÓCA,4
7862,BELENZINHO,"RUA SÃO LEOPOLDO, 326, São Paulo",-23.540819,COLÉGIO PRESBITERIANO DO BRÁS,-46.59996,Da 256ª à 276ª; 307ª;,MOÓCA,4
4261,QUARTA PARADA,"RUA SERRA DA BOCAINA, 126, São Paulo",-23.54686,EE. GUERINO RASO,-46.589882,Da 246ª à 255ª; 329ª;,MOÓCA,4
7241,BELENZINHO,"RUA SIQUEIRA BUENO, 2123, São Paulo",-23.554552,EE. PLÍNIO BARRETO,-46.582893,Da 78ª à 92ª; 310ª; 322ª; 406ª; 423ª;,MOÓCA,4
12609,MOOCA,"RUA TAQUARI, 546, São Paulo",-23.551992,UNIVERSIDADE SÃO JUDAS TADEU,-46.598274,Da 23ª à 30ª; Da 235ª à 245ª; 313ª; 317ª; 328ª; 332ª; 344ª; 349ª; 356ª; 360ª; Da 364ª à 365ª; 391ª; 421ª; 428ª;,MOÓCA,4
13581,JARDIM PAULISTA,"ALAMEDA JAÚ, 1061, São Paulo",-23.563089,COLÉGIO DANTE ALIGHIERI,-46.658619,Da 138ª à 170ª; 322ª;,JARDIM PAULISTA,5
8684,JARDIM PAULISTA,"AV. NOVE DE JULHO, 5520, São Paulo",-23.57968,FACULDADE DE ENGENHARIA SÃO PAULO - FESP,-46.678036,Da 34ª à 54ª; 319ª;,JARDIM PAULISTA,5
7115,VILA NOVA CONCEICAO,"AV. SANTO AMARO, 1239, São Paulo",-23.595104,FACULDADES METROPOLITANAS UNIDAS (SANTO AMARO),-46.672955,Da 126ª à 137ª; 268ª; 281ª; Da 284ª à 285ª; 288ª; 299ª; 317ª;,JARDIM PAULISTA,5
4507,VILA OLÍMPIA,"RUA CASA DO ATOR, 207, São Paulo",-23.600479,EMEF.  PROFª MARIA ANTONIETA D'ALKIMIN BASTO,-46.675671,Da 241ª à 252ª.,JARDIM PAULISTA,5
7503,VILA OLÍMPIA,"RUA CASA DO ATOR, 275 - UNIDADE 6, São Paulo",-23.599951,FACULDADE ANHEMBI MORUMBI,-46.676781,Da 253ª à 267ª; 272ª; 276ª; 287ª; 298ª;,JARDIM PAULISTA,5
4279,ITAIM BIBI,"RUA COJUBA, 157, São Paulo",-23.587193,EE. PROF. CECILIANO JOSÉ ENNES,-46.685364,Da 231ª à 240ª; 297ª;,JARDIM PAULISTA,5
5574,VILA NOVA CONCEICAO,"RUA DOMINGOS FERNANDES, 583, São Paulo",-23.592153,EE. MARTIM FRANCISCO,-46.670818,Da 71ª à 84ª.,JARDIM PAULISTA,5
3804,VILA MARIANA,"RUA ESTELA, 268, São Paulo",-23.577761,COLÉGIO BANDEIRANTES,-46.6436,Da 31ª à 40ª.,VILA MARIANA,6
2363,VILA NOVA CONCEICAO,"RUA DR. EDUARDO DE SOUZA ARANHA, 357, São Paulo",-23.588831,COLÉGIO DOMUS SAPIENTIAE,-46.67495,290ª; 292ª; Da 313ª à 314ª; 321ª; 326ª;,JARDIM PAULISTA,5
3755,JARDIM AMERICA,"RUA ESTADOS UNIDOS, 1339, São Paulo",-23.567921,CLUBE ATLÉTICO PAULISTANO,-46.667499,Da 1ª à 8ª; 318ª;,JARDIM PAULISTA,5
20702,CERQUEIRA CESAR,"RUA HADDOCK LOBO, 400, São Paulo",-23.556479,COLÉGIO SÃO LUÍS,-46.660385,Da 171ª à 210ª; 289ª; Da 300ª à 302ª; Da 304ª à 306ª; 309ª; 312ª; 315ª; Da 324ª à 325ª; 327ª;,JARDIM PAULISTA,5
11508,ITAIM BIBI,"RUA IGUATEMI, 306, São Paulo",-23.5837,FACULDADES METROPOLITANAS UNIDAS (IGUATEMI),-46.682701,Da 109ª à 125ª; Da 269ª à 271ª; Da 273ª à 275ª; Da 277ª à 280ª; Da 282ª à 283ª; 286ª;,JARDIM PAULISTA,5
5122,ITAIM BIBI,"RUA ITACEMA, 214, São Paulo",-23.57939,ESCOLA PUERI DOMUS - UNIDADE II - ITAIM,-46.673321,Da 21ª à 33ª.,JARDIM PAULISTA,5
5893,VILA NOVA CONCEICAO,"RUA JOÃO CACHOEIRA, 960, São Paulo",-23.58831,EE. MINISTRO COSTA MANSO,-46.67675,Da 85ª à 98ª; 296ª;,JARDIM PAULISTA,5
3473,ITAIM BIBI,"RUA LEOPOLDO COUTO DE MAGALHÃES JR., 306, São Paulo",-23.586832,EE. ARISTIDES DE CASTRO,-46.675869,Da 55ª à 61ª; 295ª; 310ª;,JARDIM PAULISTA,5
2380,JARDIM PAULISTA,"RUA MAL. BITENCOURT, 62, São Paulo",-23.5791,COLÉGIO MATER DEI,-46.662991,291ª; 303ª; 307ª; 311ª; 316ª; 320ª;,JARDIM PAULISTA,5
8744,CERQUEIRA CESAR,"RUA PADRE JOÃO MANUEL, 727, São Paulo",-23.564144,COLÉGIO IAVNE,-46.664421,Da 211ª à 230ª; Da 328ª à 329ª;,JARDIM PAULISTA,5
4833,JARDIM PAULISTA,"RUA PAMPLONA, 1616, São Paulo",-23.57048,COLÉGIO ASSUNÇÃO,-46.66042,Da 9ª à 20ª.,JARDIM PAULISTA,5
4184,ITAIM BIBI,"RUA TABAPUÃ, 180, São Paulo",-23.582357,EE. LUDOVINA CREDÍDIO PEIXOTO,-46.672325,Da 62ª à 70ª; 293ª; 308ª;,JARDIM PAULISTA,5
4293,ITAIM BIBI,"RUA TABAPUÃ, 303, São Paulo",-23.582529,ESCOLA NOSSA SENHORA DAS GRAÇAS,-46.673271,Da 99ª à 108ª; 294ª;,JARDIM PAULISTA,5
6487,PARAÍSO,"AV. BERNARDINO DE CAMPOS, 79, São Paulo",-23.57197,COLÉGIO MARIA IMACULADA,-46.643219,Da 97ª à 108ª; 313ª; 330ª; 336ª; 343ª; 350ª; 361ª; 366ª; 371ª;,VILA MARIANA,6
6276,VILA MARIANA,"AV. CONSELHEIRO RODRIGUES ALVES, 658, São Paulo",-23.58466,COLÉGIO CRISTO REI,-46.644119,Da 41ª à 57ª; 316ª; 381ª;,VILA MARIANA,6
5246,CAMBUCI,"AV. LACERDA FRANCO, 1641, São Paulo",-23.577379,EE. PROF. GOMES CARDIM,-46.625229,Da 224ª à 238ª.,VILA MARIANA,6
7435,CAMBUCI,"AV. LINS DE VASCONCELOS, 1264, São Paulo",-23.57456,FACULDADE E COLÉGIO PAULISTA,-46.623261,Da 324ª à 325ª; 327ª; 331ª; 333ª; 338ª; 341ª; 344ª; Da 348ª à 349ª; 354ª; 357ª; 363ª; 365ª; 367ª; 372ª; 375ª; 439ª; 443ª;,VILA MARIANA,6
4337,CAMBUCI,"AV. LINS DE VASCONCELOS, 600, São Paulo",-23.568087,EE. OSCAR THOMPSON,-46.62199,Da 261ª à 272ª.,VILA MARIANA,6
4001,PARAÍSO,"RUA ABÍLIO SOARES, 425, São Paulo",-23.574966,ESCOLA SANTI,-46.646088,Da 109ª à 116ª; Da 294ª à 298ª;,VILA MARIANA,6
3228,JARDIM NOSSA SENHORA APARECIDA,"RUA AMETISTA, 50, São Paulo",-23.57666,EM. BRIGADEIRO FARIA LIMA,-46.62999,Da 195ª à 203ª.,VILA MARIANA,6
8498,ACLIMAÇÃO,"RUA APENINOS, 267, São Paulo",-23.569868,UNIP. UNIVERSIDADE PAULISTA  VERGUEIRO,-46.638546,Da 170ª à 183ª; 322ª; 347ª; 374ª; 378ª; 382ª; 387ª; 390ª; 393ª; 396ª; 410ª;,VILA MARIANA,6
5249,VILA MARIANA,"RUA DONA JÚLIA, 37, São Paulo",-23.588491,EE. MARECHAL FLORIANO,-46.634823,Da 1ª à 14ª; 318ª;,VILA MARIANA,6
6951,VILA MARIANA,"RUA DOUTOR ÁLVARO ALVIM, 123, São Paulo",-23.589434,ESCOLA SUPERIOR DE PROPAGANDA E MARKETING,-46.639378,326ª; 328ª; 332ª; 335ª; 339ª; 342ª; 345ª; 356ª; 364ª; 369ª; 379ª; 401ª; 403ª; 411ª; 415ª; 419ª; 424ª; 438ª; 450ª;,VILA MARIANA,6
3853,VILA MARIANA,"RUA DOUTOR JOSÉ DE QUEIROZ ARANHA, 451, São Paulo",-23.578526,EE. MAJOR ARCY,-46.635395,Da 130ª à 140ª.,VILA MARIANA,6
7702,VILA MARIANA,"RUA EÇA DE QUEIROZ, 75, São Paulo",-23.578529,COLÉGIO E ESCOLA BENJAMIN CONSTANT,-46.641682,Da 81ª à 96ª; 314ª; 351ª; 353ª; 359ª; 383ª;,VILA MARIANA,6
6404,VILA MARIANA,"RUA GUIMARÃES PASSOS, 509, São Paulo",-23.581169,COLÉGIO HENRI WALLON,-46.632221,Da 141ª à 147ª; Da 239ª à 249ª; 320ª;,VILA MARIANA,6
4452,VILA MARIANA,"RUA HUMBERTO I, 633, São Paulo",-23.58589,EE. MAESTRO FABIANO LOZANO,-46.641529,Da 117ª à 129ª.,VILA MARIANA,6
5647,VILA MARIANA,"RUA JOSÉ ANTONIO COELHO, 879, São Paulo",-23.581261,BELAS ARTES,-46.64883,Da 299ª à 308ª; 384ª; 388ª; 392ª; 395ª; 400ª;,VILA MARIANA,6
6598,CAMBUCI,"RUA JUSTO AZAMBUJA, 267, São Paulo",-23.56077,COLÉGIO NOSSA SENHORA DA GLÓRIA,-46.623508,Da 204ª à 223ª.,VILA MARIANA,6
7021,VILA MARIANA,"RUA MADRE CABRINI, 36, São Paulo",-23.589649,COLÉGIO MADRE CABRINI,-46.635372,Da 15ª à 30ª; 317ª; 355ª; 373ª; 405ª;,VILA MARIANA,6
965,VILA MARIANA,"RUA MADRE CABRINI, 38, São Paulo",-23.5903,POLIEDRO,-46.636681,441ª; 445ª; 448ª;,VILA MARIANA,6
1747,PARAÍSO,"RUA MANOEL DA NÓBREGA,307, São Paulo",-23.570471,COLÉGIO SANTA CATARINA DE SENA,-46.65015,Da 407ª à 408ª; 416ª; 421ª; 437ª;,VILA MARIANA,6
3301,ACLIMAÇÃO,"RUA MAZZINI,61, São Paulo",-23.563141,COLÉGIO PAULO DE TARSO,-46.626011,404ª; 413ª; 418ª; 423ª; 427ª; 440ª; 442ª; 446ª; 449ª;,VILA MARIANA,6
4970,VILA MONUMENTO,"RUA OUVIDOR PORTUGAL, 607, São Paulo",-23.57267,COLÉGIO NOTRE DAME RAINHA DOS APÓSTOLOS,-46.612709,Da 376ª à 377ª; 386ª; 389ª; 394ª; 398ª; 402ª; 409ª; 412ª; 417ª; 422ª; 428ª; 444ª;,VILA MARIANA,6
4078,VILA MONUMENTO,"RUA OUVIDOR PORTUGAL, 789, São Paulo",-23.573952,EE. DR. MURTINHO NOBRE,-46.611927,Da 250ª à 260ª; 312ª;,VILA MARIANA,6
6975,JARDIM NOSSA SENHORA APARECIDA,"RUA PEDRA AZUL, 314, São Paulo",-23.416424,EM. PARA DEFICIENTES AUDITIVOS HELEN KELLER,-46.748226,Da 184ª à 194ª; 321ª; 334ª; 340ª; 360ª; 368ª; 380ª; 399ª; 426ª;,VILA MARIANA,6
8609,ACLIMAÇÃO,"RUA PIRES DA MOTA, 99, São Paulo",-23.56506,EE. CAETANO DE CAMPOS,-46.630749,Da 148ª à 169ª; 311ª; 323ª; 352ª; 358ª;,VILA MARIANA,6
4579,JARDIM VILA MARIANA,"RUA PROF. SERAFIM ORLANDI, 254, São Paulo",-23.588388,EM.PADRE MANUEL DE PAIVA,-46.621151,319ª; 329ª; 337ª; 346ª; 362ª; 370ª; 385ª; 391ª; 397ª; 406ª; 414ª; 420ª;,VILA MARIANA,6
10762,PARAÍSO,"RUA VERGUEIRO, 1211, São Paulo",-23.57288,UNIP. UNIVERSIDADE PAULISTA  PARAÍSO,-46.639931,Da 58ª à 80ª; Da 309ª à 310ª; 315ª; 425ª; 447ª;,VILA MARIANA,6
5304,PARQUE INDEPENDENCIA,"AV  DIAMANTE VERDE,180, São Paulo",-23.68646,EE. MARGARIDA MARIA ALVES,-46.787643,Da 141ª à 156ª.,VALO VELHO,20
6255,JARDIM IRAPIRANGA,"AV ANTONIO JOSÉ BENTES, 691, São Paulo",-23.665279,EE. PROF. RONALDO GARIBALDI PERETTI,-46.78965,Da 157ª à 171ª; 359ª; 370ª; 380ª;,VALO VELHO,20
2951,PARQUE FERNANDA,"ESTRADA DE ITAPECERICA, 9950, São Paulo",-23.685572,EE. MARIA JANNUZZI MASCARI,-46.80122,Da 312ª à 316ª; 344ª; 349ª; 363ª; 373ª; 386ª; 395ª;,VALO VELHO,20
6049,JARDIM SORAIA,"RUA ABÍLIO CÉSAR, 243, São Paulo",-23.680599,EE. PROF. JOÃO SILVA,-46.776848,Da 69ª à 84ª; 387ª; 392ª;,VALO VELHO,20
4081,JARDIM SORAIA,"RUA ABÍLIO CÉSAR, 25, São Paulo",-23.678562,INSTITUTO CASTELO DE EDUCAÇÃO,-46.776535,Da 302ª à 307ª; 347ª; 351ª; 357ª; 360ª; 365ª;,VALO VELHO,20
4424,JARDIM DOM JOSE,"RUA ACARIRANA, 51, São Paulo",-23.67836,EMEF. THEODOMIRO MONTEIRO DO AMARAL,-46.79726,Da 202ª à 213ª; 378ª; 398ª;,VALO VELHO,20
2031,JARDIM COMERCIAL,"RUA ALGARD, S/N, São Paulo",-23.67873,EMEF. CAMPO LIMPO 2,-46.786709,Da 338ª à 341ª; 356ª; 367ª; 384ª; 394ª;,VALO VELHO,20
3084,JARDIM GUARUJA,"RUA ARNALDO DANIEL, 100, São Paulo",-23.69484,EE. RENATA GRAZIANO,-46.789257,Da 317ª à 321ª; 343ª; 352ª; 364ª; 372ª; 379ª; 383ª; 390ª; 396ª;,VALO VELHO,20
6564,JARDIM COMERCIAL,"RUA BACIA DE SÃO FRANCISCO, S/N, São Paulo",-23.67787,EE. DR. AFIZ GEBARA,-46.787189,Da 14ª à 32ª.,VALO VELHO,20
4413,CONJUNTO HABITACIONAL VALO VELHO,"RUA CANTORIAS PAULISTAS, 20, São Paulo",-23.679899,EMEF. TEREZINHA MOTA FIGUEIREDO,-46.794739,Da 267ª à 280ª.,VALO VELHO,20
4092,PARQUE NOVO SANTO AMARO,"RUA CERDEIRA, 07, São Paulo",-23.69906,EMEF. ANTONIO ESTANISLAU DO AMARAL,-46.783112,Da 291ª à 301ª; 346ª;,VALO VELHO,20
5418,JARDIM COMERCIAL,"RUA COSTA NOVA DO PRADO, 108, São Paulo",-23.789295,EMPG. EUCLIDES DA CUNHA,-46.683613,Da 53ª à 68ª.,VALO VELHO,20
6552,JARDIM FRATERNIDADE,"RUA DA MANDIRA,120, São Paulo",-23.680117,EE. PROF. HUMBERTO ALFREDO PUCCA,-46.77346,Da 33ª à 52ª.,VALO VELHO,20
5733,JARDIM COMERCIAL,"RUA FALKENBERG, 240, São Paulo",-23.676561,EE. PROFª MAUD SÁ DE MIRANDA MONTEIRO,-46.785225,Da 250ª à 266ª.,VALO VELHO,20
6237,CHACARA SANTA MARIA,"RUA FEITIÇO DA VILA, 399, São Paulo",-23.686291,CEU. FEITIÇO DA VILA,-46.793831,Da 322ª à 330ª; 345ª; 348ª; 354ª; 358ª; 362ª; 368ª; 371ª; 375ª; 381ª; 385ª; 389ª;,VALO VELHO,20
5635,CHACARA SANTA MARIA,"RUA FEITIÇO DA VILA, 915, São Paulo",-23.68683,EMEF. PROF. JORGE AMERICANO,-46.799759,Da 222ª à 238ª.,VALO VELHO,20
5686,JARDIM SORAIA,"RUA GAGLIANO NETO, 506, São Paulo",-23.68121,EE. DONA MARIA DO CARMO CAMPOS FERREIRA,-46.776711,Da 172ª à 187ª.,VALO VELHO,20
4548,CONJUNTO RESIDENCIAL FAZZIONI,"RUA JOÃO ANDRE LEYSE, 100, São Paulo",-23.674297,EE. YOSHIO NINOMIYA,-46.776169,Da 1ª à 13ª.,VALO VELHO,20
4985,PARQUE NOVO SANTO AMARO,"RUA JOSÉ ALVES DA SILVA, 870, São Paulo",-23.697666,EE. JOSÉ PORPHYRIO DA PAZ,-46.784641,Da 281ª à 290ª; 355ª; 361ª; 369ª; 376ª; 382ª; 391ª;,VALO VELHO,20
4713,CHACARA SANTA MARIA,"RUA LUAR DO SERTÃO, 160, São Paulo",-23.693062,EE. JOITI HIRATA,-46.797611,Da 188ª à 201ª.,VALO VELHO,20
5983,PARQUE FERNANDA,"RUA PROF. GASTÃO RAMOS, 3, São Paulo",-23.505289,EE. PROFª BEATRIZ DE QUADROS LEME,-46.438568,Da 85ª à 102ª.,VALO VELHO,20
6317,JARDIM SÃO BENTO NOVO,"RUA ROCHA MEDRANO, S/N, São Paulo",-23.68277,EE. PROF. FRANCISCO ANTONIO MARTINS JÚNIOR,-46.780731,Da 124ª à 140ª.,VALO VELHO,20
2719,JARDIM AMALIA,"RUA SERRA DOS DOIS IRMÃOS, 212, São Paulo",-23.665701,EE. JARDIM IRENE III,-46.788139,Da 214ª à 221ª.,VALO VELHO,20
3520,COHAB ADVENTISTA,"RUA SOLIDARIEDADE, 200, São Paulo",-23.668604,EMEF. PROF. RICARDO VITIELLO,-46.776878,Da 239ª à 249ª.,VALO VELHO,20
1708,JARDIM AMALIA,"RUA VITORIANO PALHARES, S/N, São Paulo",-23.66695,EMEF. MARIA RITA LOPES PONTES (IRMÃ DULCE),-46.792969,Da 308ª à 311ª; 350ª; 374ª; 388ª; 397ª;,VALO VELHO,20
2061,COHAB ADVENTISTA,"TRAVESSA DA PASSAREIRA, 200, São Paulo",-23.67145,EMEF. JOSÉ OLYMPIO PEREIRA FILHO,-46.782837,Da 331ª à 333ª; 342ª; 353ª; 366ª; 377ª; 393ª;,VALO VELHO,20
9795,VILA ISA,"AV. NOSSA SENHORA DO SABARÁ, 1300, São Paulo",-23.66684,COLÉGIO MAGISTER,-46.690208,Da 125ª à 138ª; 149ª; Da 159ª à 166ª; 261ª; 317ª;,SANTO AMARO,246
3387,SANTO AMARO,"AV. PADRE JOSÉ MARIA, 210, São Paulo",-23.653814,EE. PAULO EIRÓ,-46.709923,Da 87ª à 95ª; 270ª;,SANTO AMARO,246
3519,JARDIM ANHANGUERA,"AVENIDA ENGENHEIRO ALBERTO DE ZAGOTTIS, 1301, São Paulo",-23.66379,COLÉGIO MAGISTER JÚNIOR,-46.692909,263ª; 273ª; Da 275ª à 276ª; 280ª; 284ª; 287ª; 289ª; 324ª;,SANTO AMARO,246
4742,VILA ELVIRA,"AVENIDA JOÃO DIAS, 242, São Paulo",-23.644819,COLÉGIO FRIBURGO,-46.703369,Da 30ª à 38ª; Da 83ª à 86ª;,SANTO AMARO,246
3748,JARDIM GUAIANAZES,"AVENIDA MÁRIO LOPES LEÃO, 1050, São Paulo",-23.65134,EE. MARIA PETRONILA,-46.715248,Da 96ª à 103ª; 269ª; 274ª;,SANTO AMARO,246
6818,SANTO AMARO,"AVENIDA MÁRIO LOPES LEÃO, 120, São Paulo",-23.650402,EE. PROF. ALBERTO CONTE,-46.707344,Da 1ª à 19ª; 271ª;,SANTO AMARO,246
9367,JARDIM TAQUARAL,"AVENIDA SARGENTO GERALDO SANTANA, 901, São Paulo",-23.66321,COLÉGIO SANTA MARIA,-46.68219,Da 139ª à 148ª; Da 150ª à 158ª; 314ª; 322ª; 325ª; Da 329ª à 330ª;,SANTO AMARO,246
3467,CHACARA SANTO ANTONIO (ZONA SUL),"RUA AMÉRICO BRASILIENSE, 1297, São Paulo",-23.632891,ESCOLA ESTADUAL PADRE SABÓIA DE MEDEIROS,-46.69968,Da 39ª à 44ª; 104ª; 294ª; 302ª;,SANTO AMARO,246
6845,VILA CRUZEIRO,"RUA BRAGANÇA PAULISTA, 575, São Paulo",-23.641758,EE. PLÍNIO NEGRÃO,-46.715332,Da 232ª à 249ª.,SANTO AMARO,246
9691,CHACARA SANTO ANTONIO (ZONA SUL),"RUA CANCIONEIRO POPULAR, 210, São Paulo",-23.630301,UNIP - UNIVERSIDADE PAULISTA,-46.694698,Da 187ª à 196ª; Da 206ª à 219ª; 321ª;,SANTO AMARO,246
8524,JARDIM BELA VISTA (ZONA SUL),"RUA COMENDADOR ELIAS ZARZUR, 301, São Paulo",-23.649851,COLÉGIO DOZE DE OUTUBRO,-46.700871,Da 70ª à 82ª; Da 250ª à 259ª;,SANTO AMARO,246
11777,SANTO AMARO,"RUA ISABEL SCHMIDT, 349, São Paulo",-23.651911,UNISA - UNIVERSIDADE SANTO AMARO,-46.702381,Da 20ª à 29ª; Da 56ª à 69ª; Da 175ª à 186ª; 260ª;,SANTO AMARO,246
2335,JARDIM DOS ESTADOS,"RUA JOB LANE, 900, São Paulo",-23.638029,COLÉGIO WALDORF RUDOLF STEINER,-46.683998,264ª; 268ª; 296ª; 307ª; 313ª; 327ª; 331ª;,SANTO AMARO,246
2624,JARDIM HELIOMAR,"RUA LUIZ SERÁPHICO JUNIOR, 158, São Paulo",-23.63434,COLÉGIO ELVIRA BRANDÃO,-46.71307,265ª; 281ª; 286ª; 292ª; 303ª; 311ª; 326ª; 334ª;,SANTO AMARO,246
4004,SANTO AMARO,"RUA OMAR CARDOSO, 99, São Paulo",-23.65601,EMEF. CARLOS DE ANDRADE RIZZINI,-46.699959,291ª; 293ª; Da 298ª à 299ª; 301ª; 304ª; 308ª; 310ª; 315ª; 318ª; 320ª;,SANTO AMARO,246
6328,SANTO AMARO,"RUA PADRE JOSÉ DE ANCHIETA, S/N, São Paulo",-23.648331,EMEFM. LINNEU PRESTES,-46.70459,Da 45ª à 55ª; Da 109ª à 115ª; 283ª;,SANTO AMARO,246
4957,CAMPININHA,"RUA PROFESSOR DJALMA BENTO, 155, São Paulo",-23.666382,EE. IBRAHIM NOBRE,-46.680695,Da 167ª à 174ª; 262ª; 272ª; 279ª; 288ª; 316ª;,SANTO AMARO,246
1866,CHACARA SANTO ANTONIO (ZONA SUL),"RUA RODRIGUES PAIS, 512, São Paulo",-23.6297,EMEE ANNE SULLIVAN,-46.702141,267ª; 278ª; 285ª; 295ª; 305ª;,SANTO AMARO,246
4834,JARDIM BELA VISTA (ZONA SUL),"RUA SÃO JOSÉ, 115, São Paulo",-23.645332,COLÉGIO JESUS MARIA JOSÉ,-46.701748,Da 105ª à 108ª; Da 116ª à 124ª;,SANTO AMARO,246
4692,JARDIM DOS PRADOS,"RUA TONINHAS, 73, São Paulo",-23.674482,EE. PROF. ISALTINO DE MELLO,-46.687416,266ª; 277ª; 282ª; 290ª; 297ª; 300ª; 306ª; 309ª; 312ª; 319ª; 323ª; 328ª;,SANTO AMARO,246
8140,CHACARA SANTO ANTONIO (ZONA SUL),"RUA VERBO DIVINO, 993 A, São Paulo",-23.63364,ESCOLA PUERI DOMUS,-46.705101,Da 197ª à 205ª; Da 220ª à 231ª;,SANTO AMARO,246
6474,VILA SAO SILVESTRE,"AVENIDA ANTÔNIO BERNARDO SILVESTRE, 203, São Paulo",-23.498011,EE. CARLOS GOMES,-46.443981,Da 8ª à 11ª; Da 17ª à 26ª; 406ª; 463ª; 741ª; 746ª;,SÃO MIGUEL PAULISTA,247
3798,CIDADE NOVA SAO MIGUEL,"AVENIDA NORDESTINA, 1646, São Paulo",-23.518038,EE. DEP. MANOEL DE NÓBREGA,-46.421402,Da 336ª à 344ª; 404ª;,SÃO MIGUEL PAULISTA,247
5354,VILA AMERICANA,"RUA AMÉRICO GOMES DA COSTA, 59, São Paulo",-23.494129,EE. DOM PEDRO I,-46.440357,Da 32ª à 39ª; 418ª; 440ª; 447ª; 561ª; 734ª; 753ª; 763ª;,SÃO MIGUEL PAULISTA,247
3652,VILA AMERICANA,"RUA AMÉRICO GOMES DA COSTA, 93, São Paulo",-23.494436,EMEF. ARQUITETO LUÍS SAIA,-46.440498,Da 27ª à 31ª; 398ª; 582ª; 608ª; 729ª; 742ª; 766ª;,SÃO MIGUEL PAULISTA,247
7786,VILA CURUÇÁ,"RUA BENJAMIN CAPUSSO, 6, São Paulo",-23.50392,EE. ENGENHEIRO PEDRO VIRIATO PARIGOT DE SOUZA,-46.428364,Da 163ª à 176ª; 395ª; 421ª; 452ª; 502ª; 754ª; 770ª; 775ª;,SÃO MIGUEL PAULISTA,247
3372,SAO MIGUEL PAULISTA,"RUA DANIEL BERNARDO, 105, São Paulo",-23.494076,EMEFM. DARCY RIBEIRO,-46.442409,460ª; 588ª; 597ª; 639ª; 684ª; 711ª; 719ª; 723ª; 727ª; 733ª; 751ª;,SÃO MIGUEL PAULISTA,247
5365,VILA CAROLINA,"RUA DOMINGOS DO SACRAMENTO, 275, São Paulo",-23.505978,EE. PROF. ASTROGILDO ARRUDA,-46.446026,Da 381ª à 387ª; 403ª; 456ª; 531ª; 553ª; 715ª; 758ª; 765ª; 767ª;,SÃO MIGUEL PAULISTA,247
5311,VILA CLARA,"RUA GENDIROBA, 210, São Paulo",-23.495348,EMEF. MADRE MARIA IMILDA DO SANTÍSSIMO SACRAMENTO,-46.419731,Da 177ª à 189ª; 397ª;,SÃO MIGUEL PAULISTA,247
885,PARQUE SAO DOMINGOS,"RUA ITAREMA, 25, São Paulo",-23.509342,ESCOLA SANTA TEREZA,-46.729286,339ª; 376ª; 432ª;,LAPA,250
6561,CIDADE NOVA SAO MIGUEL,"RUA JOÃO NICÁRIO ELEUTÉRIO, 374, São Paulo",-23.50948,EMEF. DOM PAULO ROLIM LOUREIRO,-46.434341,Da 345ª à 360ª; 410ª;,SÃO MIGUEL PAULISTA,247
5691,JARDIM SAO VICENTE,"RUA JOSÉ FERREIRA CRESPO, 495, São Paulo",-23.500151,EMEF. ALMIRANTE PEDRO DE FRONTIM,-46.429909,Da 64ª à 76ª; 394ª; 423ª;,SÃO MIGUEL PAULISTA,247
4983,PARQUE SONIA,"RUA JULIÃO PEREIRA MACHADO,60 A, São Paulo",-23.499474,EE. ENGENHEIRO HUGO TAKAHASHI,-46.445015,Da 1ª à 7ª; 422ª; 580ª; 595ª; 648ª; 670ª; 710ª; 722ª; 747ª;,SÃO MIGUEL PAULISTA,247
5595,CIDADE NITRO OPERARIA,"RUA LUÍS ATÍLIO ROSSI, 75, São Paulo",-23.494678,EE. PROF. DÁRIO DE QUEIROZ,-46.433273,Da 40ª à 52ª; 453ª; 713ª; 768ª;,SÃO MIGUEL PAULISTA,247
5680,JARDIM LAGEADO,"RUA MARCION, 274, São Paulo",-23.514351,EE. PROF. ARLINDO PINTO DA SILVA,-46.437874,393ª; 461ª; 479ª; 521ª; 564ª; 609ª; 638ª; 680ª; 718ª; 724ª; 730ª; 740ª; 744ª; 764ª; 772ª; 777ª;,SÃO MIGUEL PAULISTA,247
6238,VILA ROSARIA,"RUA MARIA SUSANO POLILO, 485, São Paulo",-23.50252,EE. ATAULPHO ALVES,-46.434719,Da 53ª à 63ª; 402ª; 426ª; 451ª; 736ª; 752ª; 776ª;,SÃO MIGUEL PAULISTA,247
6013,VILA NOVA CURUÇÁ,"RUA NARCEJA, 100, São Paulo",-23.516729,EE. PROFª EUNICE MARQUES DE MOURA BASTOS,-46.425461,Da 329ª à 335ª; 417ª; 465ª; 522ª; 563ª; 717ª; 743ª; 757ª; 761ª; 774ª; 778ª;,SÃO MIGUEL PAULISTA,247
3317,VILA NOVA CURUÇÁ,"RUA NOITIBÓ, 80, São Paulo",-23.517201,EE. PROFª MARIA REGINA MACHADO DE CASTRO GUIMARÃES,-46.419418,577ª; 614ª; 641ª; 661ª; 682ª; 712ª; 720ª; 725ª; 731ª; 748ª;,SÃO MIGUEL PAULISTA,247
5278,VILA ROSARIA,"RUA PEDRO SOARES DE ANDRADE, S/N, São Paulo",-23.50083,EE. REVERENDO TÉRCIO MORAES PEREIRA,-46.435902,Da 361ª à 366ª; 436ª; 551ª; 585ª; 637ª; 652ª; 673ª; 716ª; 738ª;,SÃO MIGUEL PAULISTA,247
3212,JARDIM NAIR,"RUA RAFAEL ZIMBARDI, 38, São Paulo",-23.491604,EE. PROF. PEDRO MOREIRA MATOS,-46.45216,Da 117ª à 120ª; 414ª; 469ª; 480ª; 714ª; 773ª;,SÃO MIGUEL PAULISTA,247
3475,VILA CURUÇÁ,"RUA RAINHA MARGARIDA, 20, São Paulo",-23.510649,EE. JOSÉ BORGES ANDRADE,-46.419621,555ª; 603ª; 618ª; 649ª; 674ª; 709ª; 721ª; 728ª; 732ª; 739ª;,SÃO MIGUEL PAULISTA,247
4731,JARDIM GIANETTI,"RUA TAPERÁ, 12, São Paulo",-23.518858,EMEF. FERNANDO DE AZEVEDO,-46.419483,Da 306ª à 312ª; 432ª; 495ª; 546ª; 735ª; 756ª; 771ª;,SÃO MIGUEL PAULISTA,247
2209,VILA CARMOSINA,"AV. ITAQUERA, 8266, São Paulo",-23.53997,SENAC. SERVIÇO NACIONAL DE APRENDIZAGEM COMERCIAL,-46.456539,723ª; 754ª; 769ª; 777ª; 787ª; 798ª;,ITAQUERA,248
4520,JARDIM REDIL,"ESTRADA ITAQUERA GUAIANAZES, 150, São Paulo",-23.531078,EMEF. PROF. JULIO CÉSAR DE MELO E SOUSA MALBA TAHAN,-46.442833,721ª; 734ª; 748ª; 763ª; 776ª; 786ª; 793ª; 805ª; 812ª; 819ª; 840ª; 844ª;,ITAQUERA,248
1539,VILA REGINA,"RUA ADELINO, 100, São Paulo",-23.52943,EMEI PADRE MANOEL DA NÓBREGA,-46.458931,814ª; 837ª; 846ª; 853ª;,ITAQUERA,248
976,JARDIM REDIL,"RUA ANTÔNIO MOURA ANDRADE, 395, São Paulo",-23.532528,EMEI ANTÔNIO GONÇALVES DIAS,-46.44268,859ª; 862ª; 866ª; 871ª; 876ª;,ITAQUERA,248
10845,VILA SANTANA,"RUA CAROLINA FONSECA, 584, São Paulo",-23.528379,UNICASTELO.,-46.455898,Da 48ª à 64ª; 523ª; Da 531ª à 532ª; 613ª; 616ª; 633ª; Da 654ª à 655ª; 661ª; 680ª; 697ª;,ITAQUERA,248
5190,VILA REGINA,"RUA CATARINA LOPES, 428, São Paulo",-23.530109,EMEF AYRES MARTINS TORRES,-46.459145,Da 125ª à 137ª; 879ª;,ITAQUERA,248
3793,VILA PROGRESSO,"RUA CECÍLIA ÍTER, 150, São Paulo",-23.522812,EE. JARDIM BEATRIZ,-46.441379,617ª; 629ª; 656ª; 676ª; 704ª; 730ª; 765ª; 799ª; 835ª; 863ª;,ITAQUERA,248
3280,VILA PROGRESSO,"RUA CECÍLIA ÍTER, 746, São Paulo",-23.522209,EMEF. DR. JOÃO AUGUSTO BREVES,-46.435959,653ª; 703ª; 760ª; 807ª; 818ª; 826ª; 841ª; 849ª; 857ª; 872ª; 881ª;,ITAQUERA,248
5100,CONJUNTO HABITACIONAL A E CARVALHO,"RUA CHUVA E SOL, 41, São Paulo",-23.525713,EE. REVERENDO IRINEU MONTEIRO DE PINHO,-46.460537,649ª; 660ª; 666ª; 686ª; 692ª; 705ª; 713ª; 728ª; 740ª; 756ª; 766ª; 778ª; 797ª;,ITAQUERA,248
4356,VILA PROGRESSO,"RUA CRIÚVA, 380, São Paulo",-23.519928,EE. PROF. JOSÉ RIGHETTO SOBRINHO,-46.432255,515ª; 536ª; 568ª; 592ª; 607ª; 638ª; 667ª; 718ª; 749ª; 779ª; 834ª;,ITAQUERA,248
5285,JARDIM REDIL,"RUA DR. ÁLVARO DE MENDONÇA, 914, São Paulo",-23.538958,EE. PROF. GERALDO DOMINGOS CORTEZ,-46.444271,Da 497ª à 499ª; 610ª; 643ª; 658ª; 675ª; 693ª; 710ª; 731ª; 757ª; 791ª; 813ª; 868ª;,ITAQUERA,248
6289,VILA CARMOSINA,"RUA FONTOURA XAVIER, 542, São Paulo",-23.549669,EE. PROFA. APPARECIDA RAHAL,-46.455925,Da 162ª à 175ª; 496ª; 824ª;,ITAQUERA,248
3557,VILA CARMOSINA,"RUA FONTOURA XAVIER, 851, São Paulo",-23.547171,EE. PROF. THALES CASTANHO DE ANDRADE,-46.45446,Da 494ª à 495ª; 557ª; 571ª; 577ª; 678ª; 716ª; 811ª; 839ª;,ITAQUERA,248
7036,VILA VERDE,"RUA GUAPÉBA, 50, São Paulo",-23.517059,EE. DEPUTADO CASSIO CIAMPOLINI,-46.45282,Da 138ª à 153ª; 560ª; 838ª;,ITAQUERA,248
530,PARADA XV DE NOVEMBRO,"RUA IBIAJARA, 757, São Paulo",-23.527719,EMEI PROFA. MARIA HELENA BARBOSA MARTINS,-46.435799,858ª; 864ª; 874ª;,ITAQUERA,248
5194,ITAQUERA,"RUA IGNÁCIO ALVES DE MATTOS, 281, São Paulo",-23.543688,EE. ÁLVARES DE AZEVEDO,-46.451912,Da 19ª à 30ª; 578ª; 822ª;,ITAQUERA,248
6453,PARADA XV DE NOVEMBRO,"RUA JERIBATUBA, 102, São Paulo",-23.528969,EE. COMENDADOR MARIO REYS,-46.436535,Da 387ª à 400ª; Da 521ª à 522ª; 544ª;,ITAQUERA,248
4694,PARADA XV DE NOVEMBRO,"RUA JERIBATUBA, 103, São Paulo",-23.528967,EE. ESCULTOR GALILEO EMENDABILI,-46.436539,Da 401ª à 411ª; 636ª; 673ª;,ITAQUERA,248
3899,VILA CAMPANELA,"RUA JOSÉ ALVES DOS SANTOS, 49 A, São Paulo",-23.535477,EE. PROFA. MARIA CECÍLIA DA SILVA GROHMANN,-46.460636,599ª; 620ª; 623ª; 626ª; 631ª; 663ª; 689ª; 707ª; 725ª; 831ª;,ITAQUERA,248
6289,PARADA XV DE NOVEMBRO,"RUA JUÇARAL, 170, São Paulo",-23.53124,EE. JÚLIO DINIZ,-46.433102,Da 412ª à 420ª; 570ª; 635ª; 681ª; 702ª; 732ª; 751ª; 829ª;,ITAQUERA,248
5229,VILA CARMOSINA,"RUA LAGOA TAI GRANDE, 475, São Paulo",-23.551262,EE. PROFA. MARIA DA CONCEIÇÃO OLIVEIRA COSTA,-46.457878,Da 500ª à 501ª; 540ª; 593ª; 608ª; 619ª; 646ª; 662ª; 691ª; 714ª; 741ª; 772ª; 833ª;,ITAQUERA,248
1530,PARQUE GUARANI,"RUA PINHEIRO DO PARANÁ, 177, São Paulo",-23.51693,EE. SAÍD MURAD,-46.462673,820ª; 845ª; 851ª; 860ª; 867ª; 877ª; 883ª;,ITAQUERA,248
7133,VILA CARMOSINA,"RUA PORTO XAVIER, 172, São Paulo",-23.54015,EE. PROFA. EMÍLIA DE PAIVA MEIRA,-46.45414,Da 1ª à 18ª.,ITAQUERA,248
5918,VILA VERDE,"RUA RAINHA DA NOITE, 85, São Paulo",-23.518583,EE. PROFA. HERMÍNIA DE ANDRADE PFUHL NEVES,-46.459282,618ª; 642ª; 665ª; 687ª; 696ª; 711ª; 733ª; 743ª; 755ª; 774ª; 781ª; 790ª; 803ª; 808ª; 817ª; 884ª;,ITAQUERA,248
3765,JARDIM MORGANTI,"RUA RIO URUU, 9, São Paulo",-23.546921,EE. PROF. ANÍSIO TEIXEIRA,-46.444801,539ª; 582ª; 612ª; 640ª; 683ª; 724ª; 782ª; 832ª; 836ª; 855ª; 885ª;,ITAQUERA,248
5704,VILA CARMOSINA,"RUA SÃO TEODORO, 453, São Paulo",-23.553511,EE. PROFA. MARIA FERRAZ DE CAMPOS,-46.456558,650ª; 664ª; 682ª; 699ª; 715ª; 727ª; 759ª; 768ª; 784ª; 794ª; 802ª; 810ª; 823ª; 828ª; 852ª; 861ª; 873ª;,ITAQUERA,248
6511,JARDIM NORMA,"RUA VIRGINIA DE MIRANDA, 133, São Paulo",-23.52668,EE. PROFA. HELENA LOMBARDI BRAGA,-46.452873,Da 112ª à 124ª; 533ª; 717ª; 747ª;,ITAQUERA,248
3885,JARDIM NORMA,"RUA VITOR JOSÉ DE CASTRO, 43, São Paulo",-23.523575,EE. PROF. EDSON LUÍS RIBEIRO LUZIA,-46.44725,Da 528ª à 529ª; 559ª; 575ª; 594ª; 597ª; Da 602ª à 603ª; 742ª; 830ª; 880ª;,ITAQUERA,248
4533,SANTANA,"AV. BRÁS LEME, 3029, São Paulo",-23.503727,ANHANGUERA EDUCACIONAL LTDA - (UNIBAN),-46.630512,Da 19ª à 25ª; 430ª; 487ª; 519ª; 568ª; 603ª; 631ª;,SANTANA,249
3467,SANTANA,"AV. CRUZEIRO DO SUL, 3301, São Paulo",-23.501539,EE. PADRE ANTONIO VIEIRA,-46.62495,Da 103ª à 113ª; 609ª;,SANTANA,249
3716,JARDIM CARMEM VERONICA,"AV. ENGENHEIRO CAETANO ÁLVARES, 4936, São Paulo",-23.48679,COLÉGIO PIONEIRO,-46.640499,Da 328ª à 337ª; 615ª;,SANTANA,249
3770,CHORA MENINO,"AV. IMIRÍM, 1424, São Paulo",-23.493055,COLÉGIO NOSSA SENHORA CONSOLATA,-46.647942,Da 187ª à 196ª; 611ª;,SANTANA,249
5243,JARDIM SÃO PAULO (ZONA NORTE),"AV. LEÔNCIO DE MAGALHÃES, 326, São Paulo",-23.498039,COLÉGIO JARDIM SÃO PAULO,-46.615669,Da 296ª à 298ª; 441ª; 463ª; 485ª; 502ª; 514ª; 545ª; 567ª; 588ª; 614ª; 629ª; 634ª;,SANTANA,249
6416,SANTA TERESINHA,"PRAÇA DOMINGOS CORREIA DA CRUZ , 14, São Paulo",-23.49168,INSTITUTO MADRE MAZZARELLO,-46.63345,Da 338ª à 345ª; Da 393ª à 394ª; 448ª; 492ª; 539ª; 563ª; 602ª; 626ª; 632ª;,SANTANA,249
4690,VILA AURORA (ZONA NORTE),"RUA ALBERTINA VIEIRA DA SILVA GORDO, 147, São Paulo",-23.476927,EE. PROF. CARLOS DE LAET,-46.62426,Da 163ª à 173ª; 363ª; 432ª;,SANTANA,249
4191,SANTANA,"RUA ALFREDO PUJÓL, 1555, São Paulo",-23.502194,EE. BARÃO HOMEM DE MELLO,-46.640488,Da 49ª à 59ª; 440ª;,SANTANA,249
3614,SANTANA,"RUA AMARAL GAMA, 185, São Paulo",-23.498819,COLÉGIO S.A.A.,-46.626869,Da 100ª à 102ª; 424ª; 471ª; 501ª; 544ª; 561ª; 608ª; 623ª;,SANTANA,249
3352,JARDIM AURORA (ZONA LESTE),"RUA RAIMUNDO GONÇALVES FERREIRA, 466, São Paulo",-23.541642,EE. NABIHA ABDALLA CHOHFI,-46.448479,789ª; 806ª; 809ª; 816ª; 825ª; 843ª; 848ª; 856ª; 865ª; 869ª; 875ª; 878ª; 882ª;,ITAQUERA,248
7172,JARDIM REDIL,"RUA MARCELINO DA SILVA, 50, São Paulo",-23.542586,EMEF  BRIGADEIRO HAROLDO VELOSO,-46.436806,Da 31ª à 47ª; 821ª;,ITAQUERA,248
4843,SANTA TERESINHA,"RUA COPACABANA, 243, São Paulo",-23.493891,EE. PROF. RÔMULO PERO,-46.637718,Da 67ª à 75ª; 438ª; 599ª; 605ª; 622ª;,SANTANA,249
4937,IMIRIM,"RUA DIOGO CABRERA, 424, São Paulo",-23.491428,EE. PROF. ORLANDO HORÁCIO VITA,-46.645241,Da 213ª à 224ª; 358ª; 366ª; 612ª;,SANTANA,249
2564,SANTANA,"RUA DOUTOR ZUQUÍM, 1932, São Paulo",-23.489031,COLÉGIO ALEXANDRE DE GUSMÃO,-46.624081,461ª; 480ª; 500ª; 534ª; 566ª; 600ª; 621ª; 633ª;,SANTANA,249
2609,SANTANA,"RUA DR. CÉSAR, 485, São Paulo",-23.502741,CEI PROFª ANITA CASTÁLDI ZAMPIROLLO,-46.631092,Da 38ª à 45ª.,SANTANA,249
2040,SANTANA,"RUA DR. CÉSAR, 581, São Paulo",-23.503004,EMEI JOSÉ BONIFÁCIO DE ANDRADE E SILVA,-46.631916,Da 46ª à 48ª; Da 367ª à 369ª; 604ª;,SANTANA,249
1845,SANTANA,"RUA EMBAIXADOR JOÃO NEVES DA FONTOURA, 150, São Paulo",-23.50194,COLÉGIO DELTA,-46.633678,464ª; 517ª; 570ª; 617ª; 628ª; 636ª;,SANTANA,249
2188,VILA AURORA (ZONA NORTE),"RUA INÁCIO MAMMANA, 363, São Paulo",-23.476526,CEI MADRE CRISTINA,-46.626602,454ª; 496ª; 538ª; 560ª; 595ª; 598ª; 635ª;,SANTANA,249
4468,VILA SANTA LUZIA,"RUA ISIDÓRO DE LAET, 165, São Paulo",-23.48193,EMEF PROF. ADOLPHO ÓTTO DE LAET,-46.62645,Da 139ª à 150ª; 610ª;,SANTANA,249
9466,SANTA TERESINHA,"RUA MANOEL DE MATOS, 75, São Paulo",-23.491438,COLÉGIO SALESIANO SANTA TERESINHA,-46.632519,Da 346ª à 355ª; 364ª; 399ª; 402ª; 447ª; 481ª; 498ª; 516ª; 543ª; 552ª; 555ª; 587ª; 601ª; 620ª; 630ª; 638ª;,SANTANA,249
3113,VILA BIANCA,"RUA MARIA CURUPAITI, 706, São Paulo",-23.501082,EE. PROF. DAILY RESENDE FRANÇA,-46.643444,Da 60ª à 66ª; 439ª; 618ª;,SANTANA,249
2447,CHORA MENINO,"RUA NOVA DOS PORTUGUESES, 365, São Paulo",-23.494831,COLÉGIO BRÁS LEME,-46.640732,460ª; 486ª; 508ª; 542ª; 573ª; 616ª; 624ª; 637ª;,SANTANA,249
5963,SANTANA,"RUA OLAVO EGÍDIO, 1008, São Paulo",-23.500442,EE. BUENOS AIRES,-46.615864,Da 26ª à 37ª; 429ª; 507ª; 565ª; 596ª; 619ª;,SANTANA,249
3416,JARDIM SÃO PAULO (ZONA NORTE),"RUA OUTEIRO DA CRUZ, 571, São Paulo",-23.48999,EE. REPÚBLICA DA BOLÍVIA,-46.622669,Da 76ª à 83ª; 395ª; 437ª;,SANTANA,249
4117,SANTANA,"RUA PAULO GONÇALVES, 55, São Paulo",-23.496323,EE. FRONTINO GUIMARÃES,-46.627869,Da 89ª à 99ª; 607ª;,SANTANA,249
5061,VILA SANTANA,"RUA PEDRO DÓLL, 240, São Paulo",-23.491449,COLÉGIO IMPERATRIZ LEOPOLDINA,-46.62817,Da 84ª à 88ª; Da 370ª à 374ª; 436ª; 590ª; 606ª; 627ª;,SANTANA,249
3692,VILA PAULICÉIA,"RUA PROF. ALFREDO BRÉSSER, 50, São Paulo",-23.489094,EMEF PROF. MÁXIMO DE MOURA SANTOS,-46.613937,Da 288ª à 295ª; 442ª; 597ª;,SANTANA,249
4638,SANTANA,"RUA VOLUNTÁRIOS DA PÁTRIA,  1653, São Paulo",-23.50563,COLÉGIO LUÍZA DE MARILLÁC,-46.62645,Da 1ª à 13ª; 431ª;,SANTANA,249
6397,SANTANA,"RUA VOLUNTÁRIOS DA PÁTRIA, 3422, São Paulo",-23.490105,EE. DR. OCTÁVIO MENDES,-46.626019,Da 114ª à 125ª; Da 359ª à 362ª; 435ª; 625ª;,SANTANA,249
5746,SANTANA,"RUA VOLUNTÁRIOS DA PÁTRIA, 777, São Paulo",-23.513397,ESCOLA MUNICIPAL PROF. DERVILLE ALLEGRETTI,-46.626495,Da 14ª à 18ª; Da 375ª à 392ª;,SANTANA,249
3258,VILA ANASTACIO,"AV. EMBAIXADOR MACEDO SOARES, 10935, São Paulo",-23.50959,EE. REINALDO RIBEIRO DA SILVA,-46.68969,Da 114ª à 122ª; 293ª;,LAPA,250
827,VILA DOS REMEDIOS,"RUA PRESGRAVE DO AMARAL, 160, São Paulo",-23.516199,CEI EDUCANDÁRIO SÃO DOMINGOS,-46.75193,358ª; 390ª; 436ª;,LAPA,250
4291,VILA LEOPOLDINA,"AV. IMPERATRIZ LEOPOLDINA, 550, São Paulo",-23.527741,UNIVERSIDADE MOGI DAS CRUZES,-46.734032,377ª; 384ª; 393ª; 396ª; 404ª; 408ª; 412ª; 417ª; 420ª; 428ª; 437ª; Da 443ª à 445ª; 454ª;,LAPA,250
3583,VILA PIAUI,"AV. MUTINGA, 4855, São Paulo",-23.502529,EMEI ANTÔNIO RAPOSO TAVARES,-46.75692,296ª; 312ª; Da 331ª à 332ª; 360ª; 367ª; 385ª; 405ª; 414ª;,LAPA,250
748,VILA ANASTACIO,"AV. RAIMUNDO PEREIRA DE MAGALHÃES, 1201, São Paulo",-23.5098,EE. ALEXANDRE VON HUMBOLDT,-46.715031,123ª; 356ª; 450ª;,LAPA,250
4671,JARDIM SÃO PAULO (ZONA NORTE),"RUA PROF. FÁBIO FANUCCHI, 425, São Paulo",-23.495681,EE. PROF. ANTONIO LISBOA,-46.633358,Da 276ª à 287ª; 613ª;,SANTANA,249
5051,VILA MANGALOT,"PRAÇA ITAQUIRAI, S/N, São Paulo",-23.50498,EE. OCTÁVIO MONTEIRO DE CASTRO,-46.744309,Da 239ª à 251ª.,LAPA,250
1515,VILA IPOJUCA,"PRAÇA TCHECO, S/N, São Paulo",-23.530161,EMEI. RICARDO GONÇALVES,-46.706711,372ª; 387ª; 395ª; 406ª; 446ª;,LAPA,250
3122,VILA ROMANA,"RUA ACURUÁ, 241, São Paulo",-23.53808,EE.  MARINA CERQUEIRA CÉSAR,-46.70063,Da 175ª à 180ª; 302ª; 348ª;,LAPA,250
3478,VILA DOS REMEDIOS,"RUA ADÃO GONÇALVES, 70, São Paulo",-23.50967,EE. PAULO NOGUEIRA FILHO,-46.75415,Da 135ª à 143ª.,LAPA,250
1721,PARQUE SAO DOMINGOS,"RUA AGOSTINHO DOS SANTOS, 235, São Paulo",-23.503,EE. ANTONIO CARLOS FERREIRA NOBRE,-46.738621,306ª; 320ª; 342ª; 378ª; 429ª;,LAPA,250
5202,LAPA,"RUA ANTÔNIO RAPOSO, 87, São Paulo",-23.521391,EE. ANHANGUERA,-46.705681,Da 27ª à 38ª; 307ª; 322ª;,LAPA,250
4486,JARDIM SANTO ELIAS,"RUA ARMANDO FLAMARION COELHO, 241, São Paulo",-23.496931,EMEF. RUI BLOEM,-46.749889,Da 252ª à 262ª; 430ª;,LAPA,250
2653,VILA JAGUARA,"RUA ARTUR ORLANDO, 907, São Paulo",-23.512621,EE. PROF. AYRES DE MOURA,-46.749371,Da 71ª à 74ª; 291ª; 321ª; 336ª;,LAPA,250
3872,VILA JAGUARA,"RUA ARTUR ORLANDO, 985, São Paulo",-23.511829,EE. PIO TELLES PEIXOTO,-46.748852,Da 86ª à 93ª; 292ª; 335ª;,LAPA,250
3855,ALTO DA LAPA,"RUA CAATIVA, 15, São Paulo",-23.535151,EE. ALFREDO PAULINO,-46.70908,Da 157ª à 166ª; 423ª;,LAPA,250
932,VILA MANGALOT,"RUA CARLO PERINELLO, S/N, São Paulo",-23.503229,EMEI. PAULO VI,-46.744179,354ª; 386ª; 421ª;,LAPA,250
4429,VILA DOS REMEDIOS,"RUA CARLOS ALBERTO VANZOLINI, 397, São Paulo",-23.5138,EE. JOSÉ ALTENFELDER SILVA,-46.75182,Da 124ª à 134ª; 310ª;,LAPA,250
1172,VILA LEOPOLDINA,"RUA CARLOS WEBER, 1315, São Paulo",-23.531403,COLÉGIO MADRE PAULA MONTALT,-46.72702,355ª; 362ª; 370ª;,LAPA,250
5431,VILA LEOPOLDINA,"RUA CARLOS WEBER, 835, São Paulo",-23.528481,CENTRO EDUCACIONAL SESI GASTÃO VIDIGAL,-46.729912,Da 202ª à 211ª; 309ª; 317ª; 328ª; 434ª; 447ª; 455ª;,LAPA,250
2260,VILA ROMANA,"RUA CERRO CORÁ, 2375, São Paulo",-23.5359,COLÉGIO OSWALD DE ANDRADE,-46.7178,357ª; 363ª; 374ª; 391ª; 402ª; 419ª; 451ª; 453ª;,LAPA,250
4194,VILA ROMANA,"RUA CERRO CORÁ, 770, São Paulo",-23.539967,EE. PROF.MANUEL CIRIDIÃO BUARQUE,-46.704689,Da 167ª à 174ª; 303ª; 326ª; 350ª;,LAPA,250
2466,PARQUE MARIA DOMITILA,"RUA CORONEL ALBINO REGO, 132, São Paulo",-23.495831,EMEF. GABRIEL SYLVESTRE TEIXEIRA DE CARVALHO,-46.738869,Da 379ª à 383ª; 411ª; 435ª;,LAPA,250
4316,ALTO DA LAPA,"RUA DALTON, 10, São Paulo",-23.525785,EE. JOSÉ MONTEIRO BOANOVA,-46.722992,Da 94ª à 102ª; 315ª; 347ª; 426ª;,LAPA,250
4438,LAPA,"RUA DOM JOÃO V, 164/166, São Paulo",-23.52066,COLÉGIO PRÉ MÉDICO,-46.709679,Da 12ª à 17ª; Da 67ª à 70ª; 290ª; 314ª;,LAPA,250
3536,ALTO DA LAPA,"RUA DOS ALIADOS, 540, São Paulo",-23.529671,EE. REYNALDO PORCHAT,-46.716274,Da 103ª à 109ª; 313ª; 346ª; 424ª;,LAPA,250
2802,ALTO DA LAPA,"RUA DUARTE DA COSTA, 1246, São Paulo",-23.524651,INSTITUTO DE ENSINO SANTO IVO,-46.718849,Da 110ª à 113ª; 316ª; 334ª; 399ª;,LAPA,250
4649,VILA MANGALOT,"RUA EVANDRO DANTON FERREIRA GANDRA, S/N, São Paulo",-23.49683,EE. ANTONIO FRANCISCO REDONDO,-46.742729,Da 221ª à 231ª; 298ª;,LAPA,250
1158,VILA GUEDES,"RUA FÁBIO DE ALMEIDA MAGALHÃES, 95, São Paulo",-23.498592,EMEI. PADRE CHARBONNEAU,-46.747875,Da 263ª à 264ª; 295ª;,LAPA,250
1512,LAPA DE BAIXO,"LARGO DA LAPA, S/N, São Paulo",-23.543845,EMEI. PROFESSORA NEYDE GUZZI DE CHIACCHIO,-46.712494,352ª; 368ª; 389ª; 403ª;,LAPA,250
4663,LAPA DE BAIXO,"LARGO DA LAPA, 124, São Paulo",-23.539281,EE. GUILHERME KUHLMANN,-46.713696,Da 1ª à 11ª; 297ª;,LAPA,250
5144,VILA LEOPOLDINA,"RUA GUAIPÁ, 678, São Paulo",-23.521025,ETEC PROF. BASILIDES DE GODOY,-46.729053,Da 191ª à 201ª; 294ª; 340ª; 422ª;,LAPA,250
1931,PARQUE SAO DOMINGOS,"RUA LUIS ELIAS ATTIÊ, 296/300, São Paulo",-23.498087,INSTITUTO DE ENSINO ROSATI E CRUCIANI,-46.737045,351ª; 365ª; 398ª; 407ª; 413ª;,LAPA,250
3906,LAPA,"RUA NOSSA SENHORA DA LAPA, 270/284, São Paulo",-23.52178,COLÉGIO E FACULDADES INTEGRADAS CAMPOS SALLES,-46.703609,Da 18ª à 26ª; 338ª;,LAPA,250
5103,LAPA,"RUA NOSSA SENHORA DA LAPA, 615, São Paulo",-23.52471,EE. PEREIRA BARRETO,-46.705471,Da 39ª à 49ª; 323ª; 329ª;,LAPA,250
4628,VILA HAMBURGUESA,"RUA PAULO FRANCO, 815, São Paulo",-23.53582,EMEF. DILERMANDO DIAS DOS SANTOS,-46.724731,Da 146ª à 156ª; 301ª;,LAPA,250
4174,VILA JAGUARA,"RUA PAÚVA, 644, São Paulo",-23.513741,EMEF PROF. JOSÉ FERRAZ DE CAMPOS,-46.746868,Da 75ª à 85ª.,LAPA,250
3593,VILA ROMANA,"RUA ROMA, 350, São Paulo",-23.522659,COLÉGIO HEITOR GARCIA UNIDADE II,-46.70005,Da 50ª à 56ª; 325ª; 337ª; 438ª;,LAPA,250
1903,ALTO DA LAPA,"RUA SALDANHA DA GAMA, 485, São Paulo",-23.530661,EMEI JEAN PIAGET,-46.7127,Da 280ª à 282ª; 319ª; 343ª;,LAPA,250
1477,VILA RIBEIRO DE BARROS,"RUA SILVA AIROSA, 100, São Paulo",-23.52013,EMEF. MINISTRO ANÍBAL FREIRE,-46.742493,Da 144ª à 145ª; 300ª; 349ª;,LAPA,250
3912,AGUA BRANCA,"RUA TIBÉRIO, 145, São Paulo",-23.5247,EE. DR. EDMUNDO DE CARVALHO,-46.688381,Da 57ª à 66ª.,LAPA,250
8156,VILA ROMANA,"RUA TITO, 1175, São Paulo",-23.52824,COLÉGIO MÓDULO,-46.703079,Da 265ª à 279ª; 299ª; 330ª; 345ª; 364ª; 371ª; 409ª;,LAPA,250
4878,VILA IPOJUCA,"RUA TONELEROS, 407, São Paulo",-23.531612,EE. ROMEU DE MORAES,-46.704231,Da 181ª à 190ª; 311ª; 327ª; 425ª;,LAPA,250
4408,JARDIM AMERICA,"ALAMEDA  GABRIEL MONTEIRO DA SILVA, 1555 - PRÉDIO 2, São Paulo",-23.57272,COLÉGIO MADRE ALIX 1295,-46.6819,Da 61ª à 63ª; Da 224ª à 231ª; 240ª;,PINHEIROS,251
4240,JARDIM PAULISTANO,"ALAMEDA GABRIEL MONTEIRO DA SILVA, 1715, São Paulo",-23.573879,COLÉGIO MADRE ALIX - 1112,-46.683121,Da 109ª à 118ª; 302ª;,PINHEIROS,251
4335,ALTO DE PINHEIROS,"AVENIDA DIÓGENES RIBEIRO DE LIMA, 2001, São Paulo",-23.542601,EE. EMILIANO AUGUSTO CAVALCANTI DE ALBUQUERQUE E MELO,-46.715981,Da 169ª à 179ª.,PINHEIROS,251
7751,PINHEIROS,"AVENIDA PEDROSO DE MORAIS, 420, São Paulo",-23.566368,EE. FERNÃO DIAS PAES,-46.689392,Da 1ª à 20ª.,PINHEIROS,251
1990,JARDIM ATIBAIA,"PRAÇA PROFA. EMÍLIA BARBOSA DE LIMA, 51, São Paulo",-23.54578,COLÉGIO VERA CRUZ,-46.702957,246ª; 249ª; 261ª; 274ª; 315ª;,PINHEIROS,251
4173,JARDIM DAS BANDEIRAS,"RUA ALVES GUIMARÃES, 1511, São Paulo",-23.549824,EE. PROFº ANTONIO ALVES CRUZ,-46.682136,Da 150ª à 158ª; 245ª; 291ª;,PINHEIROS,251
4229,VILA IDA,"RUA ALVILÂNDIA, 409, São Paulo",-23.545959,EE. PROFº VICTOR OLIVA,-46.7071,Da 159ª à 168ª; 305ª;,PINHEIROS,251
2755,JARDIM ATIBAIA,"RUA BERNARDA LUIZ, 301, São Paulo",-23.54471,COLÉGIO SANTA CLARA,-46.701462,Da 218ª à 223ª; 304ª;,PINHEIROS,251
2645,SUMAREZINHO,"RUA CAPOTE VALENTE, 1121, São Paulo",-23.55265,FACULDADE SUMARÉ,-46.679192,Da 268ª à 271ª; 276ª; 283ª; 309ª;,PINHEIROS,251
4591,PINHEIROS,"RUA CARDEAL ARCOVERDE, 1097, São Paulo",-23.55855,COLÉGIO STELLA MARIS,-46.683048,Da 143ª à 149ª; 279ª; 282ª; 286ª; 288ª; 295ª;,PINHEIROS,251
4571,PINHEIROS,"RUA CONÊGO EUGÊNIO LEITE, 825, São Paulo",-23.562111,SAINT FRANCIS SCHOOL,-46.682018,Da 124ª à 133ª; 306ª; 316ª;,PINHEIROS,251
4421,VILA MADALENA,"RUA DOM ROSALVO, 131, São Paulo",-23.544085,COLÉGIO HUGO SARMENTO,-46.697094,Da 180ª à 184ª; Da 213ª à 217ª; 239ª; 301ª;,PINHEIROS,251
3535,PARQUE SAO DOMINGOS,"RUA JOSÉ DE MORAIS, 191, São Paulo",-23.540383,EMEF DES. EUCLIDES CUSTÓDIO DA SILVEIRA,-46.711464,Da 232ª à 238ª; 304ª; 318ª;,LAPA,250
4191,PARQUE SAO DOMINGOS,"RUA TOMAS LOPES FERREIRA, 110, São Paulo",-23.5237,EMEF. AMADEU MENDES,-46.73584,Da 212ª à 220ª; 415ª; 431ª;,LAPA,250
4608,VILA MADALENA,"RUA DOS MORÁS, 630, São Paulo",-23.55653,EE.BRASÍLIO MACHADO,-46.693859,Da 202ª à 212ª; 300ª;,PINHEIROS,251
4179,PINHEIROS,"RUA FERREIRA DE ARAÚJO, 527, São Paulo",-23.562378,ETE. GUARACY SILVEIRA,-46.697872,242ª; Da 255ª à 256ª; 259ª; 262ª; Da 264ª à 265ª; 272ª; 278ª; 284ª; 290ª;,PINHEIROS,251
6497,PINHEIROS,"RUA FERREIRA DE ARAÚJO, 809, São Paulo",-23.564953,UNIP,-46.697964,Da 50ª à 60ª; Da 232ª à 238ª;,PINHEIROS,251
2595,PINHEIROS,"RUA FRADIQUE COUTINHO, 2200, São Paulo",-23.550341,EMEF. PROFº OLAVO PEZZOTTI,-46.694172,251ª; 258ª; 263ª; 266ª; 275ª; 285ª; 297ª;,PINHEIROS,251
1894,VILA MADALENA,"RUA GIRASSOL, 898, São Paulo",-23.55139,ESCOLA OSWALD DE ANDRADE,-46.691971,Da 198ª à 201ª; 312ª;,PINHEIROS,251
4929,VILA MADALENA,"RUA JERICÓ, 256, São Paulo",-23.551121,EE.CARLOS MAXIMILIANO PEREIRA  DOS SANTOS,-46.68932,Da 185ª à 197ª.,PINHEIROS,251
5709,JARDIM AMERICA,"RUA JOÃO MOURA, 727, São Paulo",-23.5592,EE.GODOFREDO FURTADO,-46.678742,Da 86ª à 100ª.,PINHEIROS,251
7175,JARDIM PAULISTANO,"RUA JUQUIÁ, 166, São Paulo",-23.570871,ESCOLA BRITÂNICA DE SÃO PAULO,-46.681625,Da 21ª à 26ª; Da 119ª à 123ª; Da 134ª à 138ª; 267ª; 280ª; 292ª; 308ª;,PINHEIROS,251
3372,JARDIM AMERICA,"RUA LISBOA, 974, São Paulo",-23.556169,GOETHE- INSTITUT,-46.681969,Da 101ª à 108ª; 241ª;,PINHEIROS,251
1040,PINHEIROS,"RUA NAVARRO DE ANDRADE, 152, São Paulo",-23.564791,FIA - INSTITUTO DE ADMINISTRAÇÃO,-46.68861,252ª; 254ª; 314ª; 317ª;,PINHEIROS,251
6691,ALTO DE PINHEIROS,"RUA OROBÓ, 383, São Paulo",-23.55055,COLÉGIO SANTA CRUZ,-46.71582,Da 64ª à 75ª; 243ª; 293ª; Da 298ª à 299ª; 311ª;,PINHEIROS,251
4011,PINHEIROS,"RUA PADRE CARVALHO,S/N, São Paulo",-23.563459,EE. ALFREDO BRESSER,-46.696522,Da 39ª à 49ª.,PINHEIROS,251
1754,VILA MADALENA,"RUA PURPURINA, 290, São Paulo",-23.55369,EMEI. PROFª ZILDA DE FRANCESCHI,-46.69109,248ª; 253ª; 257ª; 277ª; 313ª;,PINHEIROS,251
6165,PINHEIROS,"RUA TEODORO SAMPAIO, 688, São Paulo",-23.557329,CENTRO INTERESCOLAR OBJETIVO,-46.676979,Da 76ª à 85ª; Da 139ª à 142ª; 289ª; 296ª;,PINHEIROS,251
1768,VILA CENTENARIO,"AV. ALVINÓPOLIS, 1360, São Paulo",-23.531218,EMEI. NENÉ DO AMANHA,-46.530594,239ª; 246ª; 260ª; 303ª; 327ª;,PENHA DE FRANÇA,252
6768,VILA ESPERANCA,"AV. AMADOR BUENO DA VEIGA, 2932, São Paulo",-23.522585,EE. PROFº GABRIEL ORTIZ,-46.518002,Da 127ª à 138ª; 228ª; 265ª; 267ª; 272ª; 277ª; 281ª;,PENHA DE FRANÇA,252
7283,PENHA DE FRANÇA,"AV. AMADOR BUENO DA VEIGA, 604, São Paulo",-23.52224,EE. BARÃO DE RAMALHO,-46.539097,Da 45ª à 62ª; 309ª;,PENHA DE FRANÇA,252
348,PENHA DE FRANÇA,"AV. CONDESSA ELIZABETH ROBIANO S/N, São Paulo",-23.518829,CEU. TIQUATIRA,-46.555199,321ª; 329ª;,PENHA DE FRANÇA,252
4499,VILA CARLOS DE CAMPOS,"AV. DR. ORÊNCIO VIDIGAL, 212, São Paulo",-23.53101,ETE. PROFº APRÍGIO GONZAGA,-46.538849,Da 1ª à 10ª; 233ª; 296ª;,PENHA DE FRANÇA,252
4407,PENHA DE FRANÇA,"AV. GABRIELA MISTRAL, 520, São Paulo",-23.516621,EE. BARÃO DE SOUZA QUEIROZ,-46.549648,Da 79ª à 89ª; 231ª; 306ª;,PENHA DE FRANÇA,252
4012,VILA ESPERANCA,"AV. PADRES OLIVETANOS, 783, São Paulo",-23.529341,COLÉGIO OLIVETANO,-46.527371,Da 148ª à 153ª; 211ª; 214ª; 223ª; 236ª; 295ª;,PENHA DE FRANÇA,252
5870,PENHA DE FRANÇA,"PRAÇA NOSSA SENHORA DA PENHA, 161, São Paulo",-23.5264,COLÉGIO SÃO VICENTE DE PAULO,-46.54956,Da 22ª à 30ª; Da 208ª à 209ª; 212ª; 218ª; Da 220ª à 221ª; 225ª; 313ª;,PENHA DE FRANÇA,252
4534,VILA RÉ,"RUA  SÃO SERAPIÃO, 396, São Paulo",-23.5277,EE. PROFº JOSÉ BARTOCCI,-46.499119,Da 154ª à 162ª; 235ª; 288ª; 301ª;,PENHA DE FRANÇA,252
4478,VILA GRANADA,"RUA ALICANTE, 483, São Paulo",-23.52388,EE. ALMIRANTE CUSTÓDIO JOSÉ DE MELLO,-46.518108,Da 120ª à 126ª; 238ª; 251ª; 255ª; 291ª; 299ª;,PENHA DE FRANÇA,252
2743,ALTO DE PINHEIROS,"RUA DONA ELISA DE MORAES MENDES, 39, São Paulo",-23.554546,COLÉGIO RAINHA DA PAZ,-46.700134,247ª; 250ª; 260ª; 273ª; 281ª; 287ª; 294ª;,PINHEIROS,251
4231,PENHA DE FRANÇA,"RUA COMENDADOR CANTINHO, 394, São Paulo",-23.52507,FACULDADE DRUMMOND,-46.55059,Da 39ª à 44ª; 229ª; 234ª; 252ª; 279ª; 297ª;,PENHA DE FRANÇA,252
2092,PENHA DE FRANÇA,"RUA FRANCISCO COIMBRA, 403, São Paulo",-23.526251,SENAC PENHA,-46.54052,245ª; 249ª; 258ª; 274ª; 284ª; 302ª;,PENHA DE FRANÇA,252
4344,VILA RÉ,"RUA MARCIANO CAPELLA, 257, São Paulo",-23.531389,EE. PROFª ADALGISA MOREIRA PIRES,-46.492908,Da 163ª à 173ª; 310ª;,PENHA DE FRANÇA,252
5523,VILA ESPERANCA,"RUA MARIA CARLOTA, 400, São Paulo",-23.52475,EE. DOM JOÃO MARIA OGNO OSB.,-46.528622,Da 107ª à 119ª; 290ª; 308ª; 330ª;,PENHA DE FRANÇA,252
1972,VILA SAO GERALDO,"RUA MARIA TEREZA ASSUNÇÃO, 441, São Paulo",-23.516367,COLÉGIO PENHA DE FRANÇA,-46.541863,240ª; 257ª; 271ª; 282ª; 315ª; 324ª;,PENHA DE FRANÇA,252
1197,PENHA DE FRANÇA,"RUA MIRANDINHA, 881, São Paulo",-23.529961,EE. PROFª RITA JÚLIA DE OLIVEIRA,-46.535599,292ª; 294ª; 318ª; 326ª;,PENHA DE FRANÇA,252
3694,VILA RÉ,"RUA NHATUMANI, 568, São Paulo",-23.525419,COLÉGIO DOURADO,-46.500279,244ª; 253ª; 256ª; 263ª; 266ª; 270ª; 276ª; 319ª; 322ª; 325ª; 328ª;,PENHA DE FRANÇA,252
4773,PENHA DE FRANÇA,"RUA PADRE BENEDITO DE CAMARGO, 762, São Paulo",-23.521057,EE. NOSSA SENHORA DA PENHA,-46.547928,Da 73ª à 78ª; 217ª; 227ª; 232ª; 261ª; 275ª; 283ª; 312ª;,PENHA DE FRANÇA,252
6676,VILA RÉ,"RUA PANGAUÁ, 210, São Paulo",-23.52953,EE. PROFª MARIA APARECIDA DE CASTRO MASIERO,-46.49921,Da 193ª à 204ª; 210ª; 213ª; 219ª; 222ª; 285ª; 311ª;,PENHA DE FRANÇA,252
8284,VILA RÉ,"RUA PUQUIXÃ, S/N, São Paulo",-23.524651,EE. PROFª MARIA DE CARVALHO SENNE,-46.509781,Da 174ª à 192ª; 215ª; 293ª; 317ª;,PENHA DE FRANÇA,252
2814,VILA ESPERANCA,"RUA RINCÃO, 40, São Paulo",-23.529093,OFICINA PEDAGÓGICA LESTE 1,-46.521564,Da 100ª à 106ª; 307ª;,PENHA DE FRANÇA,252
3996,PENHA DE FRANÇA,"RUA SANTO AFONSO, 273, São Paulo",-23.679634,EE. PADRE ANTÃO,-46.63649,Da 31ª à 38ª; 241ª; 286ª; 305ª;,PENHA DE FRANÇA,252
1357,VILA RÉ,"RUA SANTO HENRIQUE, 50, São Paulo",-23.530031,CDC. ENTURMANDO VILA RÉ CIRCO ESCOLA,-46.501862,248ª; 250ª; 264ª; 314ª;,PENHA DE FRANÇA,252
4359,VILA SANTANA,"RUA SÃO SEVERIANO, 217, São Paulo",-23.51815,EE. PROFº JOSÉ DE CAMPOS CAMARGO,-46.533585,Da 90ª à 99ª; 230ª; 316ª;,PENHA DE FRANÇA,252
4437,VILA LAIS,"RUA TUJUBA, 1475, São Paulo",-23.515209,EE. ESTHER FRANKEL SAMPAIO,-46.541889,Da 63ª à 72ª; 287ª; 298ª;,PENHA DE FRANÇA,252
5212,VILA MARIETA,"RUA UICÓ, 533, São Paulo",-23.52195,EE. PROFº THEODOMIRO EMERIQUE,-46.52142,Da 139ª à 147ª; 216ª; 237ª; 262ª; 300ª; 323ª;,PENHA DE FRANÇA,252
4891,VILA RICA,"AV. INCONFIDÊNCIA MINEIRA, 576, São Paulo",-23.58061,EE. EDUARDO CARLOS PEREIRA,-46.51815,Da 237ª à 241ª; 440ª; Da 449ª à 450ª; Da 454ª à 456ª; 459ª; 563ª;,TATUAPÉ,253
10666,VILA ANTONIETA,"AV. RIO DAS PEDRAS, 2022, São Paulo",-23.570971,EE. PROF. MOACYR CAMPOS,-46.507008,Da 173ª à 200ª; 414ª;,TATUAPÉ,253
5506,VILA CARRAO,"AVENIDA GUILHERME GIORGI, 430, São Paulo",-23.550381,ESCOLA SANTA MARINA,-46.543289,Da 281ª à 292ª; 551ª; 589ª; 613ª; 627ª; 636ª; 647ª;,TATUAPÉ,253
4390,VILA NOVA YORK,"PRAÇA CÂNDIDO MENDES DE ALMEIDA, 184, São Paulo",-23.58029,EE. PROFª ARACY LEME DA VEIGA RAVACHE,-46.507118,Da 226ª à 236ª; 543ª;,TATUAPÉ,253
3563,VILA NOVA MANCHESTER,"PRAÇA HAROLDO DALTRO, 466, São Paulo",-23.546772,EMEF GUIMARÃES ROSA,-46.531452,Da 323ª à 330ª; 554ª; 580ª; 626ª;,TATUAPÉ,253
1723,VILA NOVA MANCHESTER,"PRAÇA HAROLDO DALTRO, S/N, São Paulo",-23.54623,EMEI PROFª SUZANA EVANGELINA FELIPPE,-46.533291,433ª; 437ª; 484ª; 504ª; 553ª; 608ª;,TATUAPÉ,253
3689,MARANHAO,"RUA ADELINO DE ALMEIDA CASTILHO, 178, São Paulo",-23.533266,EE. CARLOS ESCOBAR,-46.5565,Da 52ª à 60ª; 549ª; 576ª;,TATUAPÉ,253
5453,VILA GOMES CARDIM,"RUA AGUAPEÍ, 831, São Paulo",-23.550899,EE. DR. BENEDITO ESTEVAM DOS SANTOS,-46.554851,Da 132ª à 145ª; 556ª; 577ª;,TATUAPÉ,253
2027,VILA RÉ,"RUA HERMILO ALVES, 1090, São Paulo",-23.522283,COLÉGIO RAMA - UNIDADE 2,-46.532249,Da 205ª à 207ª; 226ª; 243ª; 269ª;,PENHA DE FRANÇA,252
1726,JARDIM CATARINA,"RUA ANTÔNIO FERRACIOLI, 283, São Paulo",-23.58429,EE. MARIA PRESTES MAIA,-46.51384,478ª; 502ª; 526ª; 564ª; 599ª; 606ª; 631ª;,TATUAPÉ,253
3789,VILA GOMES CARDIM,"RUA APUCARANA, 815, São Paulo",-23.545666,ETE. MARTIN LUTHER KING,-46.563766,Da 165ª à 172ª; 509ª; 521ª;,TATUAPÉ,253
5463,VILA CARRAO,"RUA CEL. AMARO SOBRINHO, 303, São Paulo",-23.55554,EE. PROFª IRENE RIBEIRO,-46.522942,Da 338ª à 352ª; 436ª; 593ª;,TATUAPÉ,253
1168,PARQUE BOTURUSSU,"RUA MARCO POLO, 905, São Paulo",-23.49761,C.E.I. DELSON DOMINGUES,-46.487911,717ª; 754ª; 775ª;,ERMELINO MATARAZZO,326
3958,VILA ANTONIETA,"RUA CORONEL JOÃO DE OLIVEIRA MELO, 967, São Paulo",-23.576321,EE. DUQUE DE CAXIAS,-46.51226,Da 254ª à 263ª.,TATUAPÉ,253
789,PARQUE MARIA LUIZA,"RUA DR. MARIANO CURSINO DE MOURA, 395, São Paulo",-23.558208,EMEI OLÂNDYA PERES RIBEIRO,-46.516037,430ª; 438ª; 453ª;,TATUAPÉ,253
4114,PARQUE MARIA LUIZA,"RUA DR. PAULO DE ANDRADE ARANTES, 125, São Paulo",-23.55781,EMEF SÉRGIO MILLIET,-46.51712,Da 368ª à 379ª; 558ª;,TATUAPÉ,253
3138,VILA GOMES CARDIM,"RUA EUCLIDES PACHECO, 478, São Paulo",-23.54863,COLÉGIO SÃO FRANCISCO,-46.570251,514ª; 527ª; 530ª; 537ª; 539ª; 571ª; 581ª; 598ª; 609ª; 618ª; 630ª; 635ª; 644ª;,TATUAPÉ,253
5863,TATUAPE,"RUA FELIPE CAMARÃO, 350, São Paulo",-23.53797,EE. OSWALDO CATALANO,-46.579403,Da 1ª à 9ª; Da 28ª à 31ª; 66ª; 399ª; 405ª; 419ª; 544ª;,TATUAPÉ,253
2186,CHACARA CALIFORNIA,"RUA FRANCISCO MACHADO DE CAMPOS, 294, São Paulo",-23.54105,EE. PROF. ALVINO BITTENCOURT,-46.546551,476ª; 495ª; 517ª; 532ª; 565ª; 588ª; 603ª; 620ª; 642ª;,TATUAPÉ,253
4722,VILA GOMES CARDIM,"RUA FRANCISCO MARENGO, 475, São Paulo",-23.541348,EE. PROF. PAULO NOVAES DE CARVALHO,-46.559154,Da 146ª à 157ª; 597ª;,TATUAPÉ,253
8354,CHACARA CALIFORNIA,"RUA GONÇALO NUNES, 310, 366, São Paulo",-23.544161,COLÉGIO MARY WARD,-46.549351,Da 74ª à 79ª; Da 264ª à 270ª; Da 302ª à 307ª; 400ª; 403ª; 415ª; 566ª;,TATUAPÉ,253
5868,JARDIM ANALIA FRANCO,"RUA INSPETOR MÁRIO TEIXEIRA, 41, São Paulo",-23.55584,EE. PROFª BLANCA ZWICKER SIMÕES,-46.566109,Da 80ª à 87ª; 387ª; 393ª; 412ª; 477ª; 497ª; 522ª; 602ª;,TATUAPÉ,253
6876,VILA GOMES CARDIM,"RUA ITAPURA, 976, São Paulo",-23.547443,EE. PROF. JOÃO BORGES,-46.566009,Da 103ª à 118ª; 482ª;,TATUAPÉ,253
5253,JARDIM QUARTO CENTENARIO,"RUA JOAQUIM FELÍCIO, 170, São Paulo",-23.581598,EE. PROFª MARIA DE LOURDES DO ROSÁRIO NEGREIROS,-46.500584,Da 242ª à 253ª; 545ª; 583ª; 619ª;,TATUAPÉ,253
4488,VILA NOVA MANCHESTER,"RUA LUCINDA GOMES BARRETO, 605, São Paulo",-23.546148,EE. CORONEL PEDRO ARBUES,-46.540733,Da 331ª à 337ª; 402ª; 420ª; 432ª; 435ª; 442ª; 548ª;,TATUAPÉ,253
6126,VILA CARRAO,"RUA LUÍS PINTO, 92, São Paulo",-23.554066,EE. PROFª JÚLIA AMÁLIA DE AZEVEDO ANTUNES,-46.536171,Da 308ª à 322ª; 434ª; 472ª; 594ª;,TATUAPÉ,253
4665,VILA ANTONIETA,"RUA MANUEL LUIS DE VERGUEIRO, 365, São Paulo",-23.501501,EE. DEP. NORBERTO MAYER FILHO,-46.478886,Da 388ª à 391ª; Da 394ª à 397ª; 404ª; 406ª; Da 408ª à 409ª; 542ª;,TATUAPÉ,253
3226,TATUAPE,"RUA MARIA EUGÊNIA, 190, São Paulo",-23.533758,EE. ERASMO BRAGA,-46.574116,Da 14ª à 21ª; 559ª;,TATUAPÉ,253
3463,VILA ANTONIETA,"RUA MONTE CARDOSO, 671, São Paulo",-23.567024,EE. NAGIB IZAR,-46.514442,424ª; 439ª; 451ª; 466ª; 485ª; 510ª; 528ª; 570ª; 590ª; 605ª; 624ª;,TATUAPÉ,253
1655,CHACARA CALIFORNIA,"RUA MONTE SERRAT, 468, São Paulo",-23.541504,EMEI QUINTINO BOCAIÚVA,-46.562019,515ª; 531ª; 550ª; 572ª; 591ª; 621ª; 639ª;,TATUAPÉ,253
9484,JARDIM QUARTO CENTENARIO,"RUA PASTOR AGENOR CALDEIRA DINIZ, 48, São Paulo",-23.584795,EE. DONA PILAR GARCIA VIDAL,-46.498314,Da 201ª à 225ª; 552ª;,TATUAPÉ,253
8925,TATUAPE,"RUA CESÁRIO GALENO, 475, São Paulo",-23.586643,UNICID UNIVERSIDADE CIDADE DE SÃO PAULO,-46.509247,Da 22ª à 27ª; Da 32ª à 37ª; Da 61ª à 65ª; 392ª; 398ª; 407ª; 410ª; 417ª; 541ª; 601ª; 638ª;,TATUAPÉ,253
748,TATUAPE,"RUA PARQUE BUTUÍ, S/N, São Paulo",-23.570281,EMEF ARTHUR AZEVEDO,-46.516457,480ª; 492ª; 505ª;,TATUAPÉ,253
6843,VILA CARRAO,"RUA PEDRO MALAQUIAS, 34, São Paulo",-23.555412,ESCOLA ISLÂMICA BRASILEIRA,-46.525692,Da 271ª à 280ª; Da 380ª à 386ª; 413ª; 421ª;,TATUAPÉ,253
3456,VILA GOMES CARDIM,"RUA PROF. PEDREIRA DE FREITAS, 401, 415, São Paulo",-23.550461,FACULDADE E COLÉGIO CARLOS DRUMMOND DE ANDRADE,-46.55822,474ª; 487ª; 496ª; 507ª; 520ª; 560ª; 575ª; 586ª; 604ª; 614ª; 622ª; 633ª; 643ª;,TATUAPÉ,253
2726,VILA ANTONIETA,"RUA REGO BARROS, 501, São Paulo",-23.564058,EE. CARAMURU,-46.517975,481ª; 499ª; 518ª; 536ª; 561ª; 579ª; 607ª; 616ª; 625ª; 634ª; 645ª;,TATUAPÉ,253
3941,VILA CARRAO,"RUA RENATO RINALDI, 31, São Paulo",-23.548531,EE. PROF. SALVADOR ROCCO,-46.545441,Da 293ª à 301ª; 475ª; 573ª;,TATUAPÉ,253
5870,CHACARA SANTO ANTONIO (ZONA LESTE),"RUA SANTA GERTRUDES, 152, São Paulo",-23.548077,COLÉGIO SANTO ANTÔNIO DE LISBOA,-46.556152,Da 67ª à 73ª; Da 158ª à 164ª; 401ª; 411ª; 446ª;,TATUAPÉ,253
1782,PARQUE SAO JORGE,"RUA SANTO ELIAS, 146, São Paulo",-23.53264,EMEI PRESIDENTE DUTRA,-46.566971,Da 10ª à 13ª; 555ª; 596ª;,TATUAPÉ,253
5079,VILA MARIA,"RUA ITAÚNAS, 748, São Paulo",-23.515743,EE. PROFA. FLORINDA CARDOSO,-46.590671,Da 17ª à 29ª; 317ª; 419ª;,VILA MARIA,254
4153,JARDIM IMPERADOR (ZONA LESTE),"RUA SÃO JOÃO DO PARAÍSO, 57, São Paulo",-23.589409,EMEF DES. ACHILLES DE OLIVEIRA RIBEIRO,-46.498184,Da 422ª à 423ª; 441ª; 447ª; 467ª; 483ª; 493ª; 506ª; 519ª; 529ª; 567ª; 600ª; 640ª;,TATUAPÉ,253
4663,VILA GOMES CARDIM,"RUA SERRA DE BRAGANÇA, 990, São Paulo",-23.544712,CENTRO EDUCACIONAL SESI,-46.566353,425ª; 427ª; 445ª; Da 457ª à 458ª; 462ª; 464ª; Da 468ª à 469ª; 490ª; 494ª; 503ª; 562ª;,TATUAPÉ,253
6861,VILA GOMES CARDIM,"RUA SERRA DE JAPI, 445, São Paulo",-23.542971,COLÉGIO AGOSTINIANO  MENDEL,-46.569538,Da 119ª à 131ª; 426ª; 547ª; 568ª; 584ª; 612ª;,TATUAPÉ,253
3799,TATUAPE,"RUA TUIUTI, 1442, São Paulo",-23.53805,COLÉGIO ESPÍRITO SANTO,-46.57563,513ª; 525ª; 535ª; 538ª; 546ª; 569ª; 578ª; 585ª; 592ª; 610ª; 617ª; 623ª; 632ª;,TATUAPÉ,253
1554,VILA GOMES CARDIM,"RUA TUIUTI, 2151, São Paulo",-23.544506,EE. VISCONDE DE CONGONHAS DO CAMPO,-46.574715,516ª; 534ª; 557ª; 582ª; 615ª; 628ª; 641ª;,TATUAPÉ,253
6603,TATUAPE,"RUA TUIUTI, 2865, São Paulo",-23.550545,EE. PROF. ASCENDINO REIS,-46.573013,Da 88ª à 102ª.,TATUAPÉ,253
3443,TATUAPE,"RUA TUIUTI, 2965, São Paulo",-23.551758,EE. PROF. JOÃO CLÍMACO DA SILVA KRUSE,-46.572739,Da 428ª à 429ª; 444ª; 448ª; 460ª; 465ª; 473ª; 488ª; 500ª; 512ª;,TATUAPÉ,253
6162,VILA CARRAO,"RUA VACANGA, 415, São Paulo",-23.560577,EE. DONA AMÉLIA DE ARAUJO,-46.531227,Da 353ª à 367ª; 431ª; 470ª;,TATUAPÉ,253
5334,CARANDIRU,"AV. CONCEIÇÃO, 1385, São Paulo",-23.495247,EMEF. RUI BARBOSA,-46.585178,Da 176ª à 184ª; 286ª; 320ª; 351ª; 369ª; 382ª; 414ª; 438ª;,VILA MARIA,254
861,SANTANA,"AV. CRUZEIRO DO SUL, 2630, São Paulo",-23.507566,ETEC PARQUE DA JUVENTUDE,-46.625164,418ª; 457ª; 465ª; 472ª;,VILA MARIA,254
89,VILA MARIA,"AV. MORVAN DIAS DE FIGUEIREDO 4210, São Paulo",-23.51877,UNID. DE INTERNAÇÃO - OURO PRETO E JOÃO DO PULO (F.CASA),-46.62405,461ª.,VILA MARIA,254
84,VILA MARIA,"AV. MORVAN DIAS DE FIGUEIREDO, 4222, São Paulo",-23.51836,UNIDADE DE INTERNAÇÃO - PAULISTA E NOVA VIDA (F.CASA),-46.617001,458ª.,VILA MARIA,254
6022,VILA PAIVA,"AVENIDA CONCEIÇÃO, 2288, São Paulo",-23.500132,EE. MARIA MONTESSORI,-46.593143,Da 165ª à 175ª; 274ª; 290ª; 302ª; 306ª; 308ª; 401ª; 413ª;,VILA MARIA,254
3288,CARANDIRU,"AVENIDA CONCEIÇÃO, 806, São Paulo",-23.50046,EE. PROF. NARBAL FONTES,-46.605618,Da 185ª à 191ª; 287ª; 402ª;,VILA MARIA,254
5366,JARDIM JAPAO,"AVENIDA DAS CEREJEIRAS, 2435, São Paulo",-23.501215,EE. FRANCISCO DA COSTA GUEDES,-46.572754,Da 103ª à 117ª; 425ª;,VILA MARIA,254
5982,VILA MARIA,"AVENIDA GUILHERME COTCHING, 1272, São Paulo",-23.518303,EE. JOÃO VIEIRA DE ALMEIDA,-46.589348,Da 1ª à 16ª; 403ª;,VILA MARIA,254
2326,VILA MARIA ALTA,"PRAÇA PRES. JÂNIO DA SILVA QUADROS, 270, São Paulo",-23.500481,CEI. JARDIM JAPÃO,-46.583771,284ª; 300ª; 325ª; 343ª; 358ª; 379ª; 410ª;,VILA MARIA,254
6894,JARDIM JAPAO,"PRAÇA PRES. JÂNIO DA SILVA QUADROS, S/N, São Paulo",-23.49942,EMEF. DOM PEDRO PRIMEIRO,-46.579399,Da 90ª à 102ª; 283ª;,VILA MARIA,254
6894,VILA MARIA ALTA,"PRAÇA PRESIDENTE JÂNIO DA SILVA QUADROS, S/N, São Paulo",-23.49942,EMEI. CARLOS GOMES,-46.579399,Da 118ª à 123ª.,VILA MARIA,254
1548,JARDIM JAPAO,"PRAÇA YEDO, S/N, São Paulo",-23.49976,EMEI. PROF. YUKIO OZAKI,-46.574619,416ª; 441ª; 445ª; 448ª;,VILA MARIA,254
3355,VILA MARIA BAIXA,"RUA ALCÂNTARA, 113, São Paulo",-23.52033,ETESG. HORÁCIO AUGUSTO DA SILVEIRA - INDUSTRIAL,-46.595901,Da 268ª à 273ª; 298ª; 303ª; 326ª; 431ª;,VILA MARIA,254
2499,VILA GUILHERME,"RUA AMAZONAS DA SILVA, 737, São Paulo",-23.512999,UNIP - UNIVERSIDADE PAULISTA (CAMPUS SANTANA),-46.609291,332ª; 337ª; 344ª; 367ª; 377ª; 385ª; 406ª;,VILA MARIA,254
3762,VILA GUILHERME,"RUA AMAZONAS DA SILVA, 892, São Paulo",-23.512125,EMEF. OLIVA IRENE BAYERLEIN SILVA,-46.608498,Da 252ª à 259ª; 293ª; 305ª; 327ª;,VILA MARIA,254
8549,VILA MARIA,"RUA ARARITAGUABA, 1330, São Paulo",-23.51507,EE. SEN. PAULO EGYDIO DE O. CARVALHO,-46.581551,Da 50ª à 66ª; 281ª; 316ª; 340ª; 355ª; 408ª; 421ª; 432ª;,VILA MARIA,254
4881,JARDIM ANDARAI,"RUA BENEDITO ALÉSSIO, 184, São Paulo",-23.52626,EMEF. CEL. ARY GOMES,-46.582272,Da 150ª à 154ª; 285ª; 322ª; 341ª; 346ª; Da 359ª à 360ª; 397ª; 433ª; 436ª;,VILA MARIA,254
6202,VILA PAIVA,"RUA CORONEL JORDÃO, 144, São Paulo",-23.507458,EE. CASEMIRO DE ABREU,-46.601757,Da 236ª à 251ª; 328ª; 412ª; 434ª;,VILA MARIA,254
5613,VILA MARIA,"RUA DIAS DA SILVA, 1464, São Paulo",-23.514111,EE. MINISTRO HORÁCIO LAFER,-46.585098,Da 30ª à 39ª; 275ª; 291ª; 299ª; 304ª; 307ª; 309ª; 437ª;,VILA MARIA,254
1199,VILA LEONOR,"RUA DIRCE, 106, São Paulo",-23.502586,EMEF. PROFA. HELENA LOMBARDI BRAGA,-46.598301,330ª; 384ª; 440ª; 467ª; 473ª;,VILA MARIA,254
5069,VILA MARIA ALTA,"RUA GASTÃO MADEIRA, 386, São Paulo",-23.506796,EMEF. JOÃO DOMINGUES SAMPAIO,-46.582046,Da 67ª à 75ª; 280ª; 315ª; 354ª; 390ª; 400ª;,VILA MARIA,254
1001,VILA MARIA ALTA,"RUA GASTÃO MADEIRA, S/N, São Paulo",-23.50573,EMEF. MARIA YOLANDA DE SOUZA PINTO HAHNE,-46.585251,430ª; 446ª; 456ª;,VILA MARIA,254
1098,VILA MARIA ALTA,"RUA GENERAL MENDES, 46, São Paulo",-23.50185,EMEI. EDUARDO CARLOS PEREIRA,-46.591049,423ª; 442ª; 449ª;,VILA MARIA,254
5543,VILA MARIA ALTA,"RUA GENERAL MENDES, 7, São Paulo",-23.500502,EMEF. ALMIRANTE TAMANDARÉ,-46.592323,Da 155ª à 164ª; Da 278ª à 279ª; 321ª; 350ª; 357ª; 368ª;,VILA MARIA,254
7578,VILA MARIA BAIXA,"RUA GUARANÉSIA, 425, São Paulo",-23.519901,UNINOVE - CENTRO UNIVERSITÁRIO 9 DE JULHO,-46.592522,331ª; 335ª; 338ª; 342ª; 353ª; 362ª; 364ª; 371ª; 373ª; 375ª; 378ª; 383ª; 386ª; 391ª; 394ª; 398ª; 407ª; 429ª; 444ª; Da 451ª à 452ª;,VILA MARIA,254
3394,VILA GUILHERME,"RUA JOSÉ BERNARDO PINTO, 758, São Paulo",-23.515671,EE. PROFA. ANÉSIA SINCORÁ,-46.604698,Da 260ª à 267ª; Da 296ª à 297ª;,VILA MARIA,254
6112,VILA GUILHERME,"RUA MARIA CÂNDIDA, 1813, São Paulo",-23.507853,UNIBAN - UNIVERSIDADE BANDEIRANTE DE SÃO PAULO,-46.597862,Da 333ª à 334ª; 348ª; 356ª; 366ª; 370ª; 374ª; 380ª; 388ª; 396ª; 404ª; 427ª; 435ª; 443ª; 450ª; 462ª;,VILA MARIA,254
5573,VILA GUILHERME,"RUA MARIA CÂNDIDA, 1936, São Paulo",-23.50839,EE. AFRÂNIO PEIXOTO,-46.59687,Da 223ª à 235ª; Da 294ª à 295ª; 318ª;,VILA MARIA,254
4790,VILA GUILHERME,"RUA MARIA CÂNDIDA, 293, São Paulo",-23.502247,EE. TOLEDO BARBOSA,-46.611572,Da 210ª à 222ª; 422ª;,VILA MARIA,254
5615,VILA ISOLINA MAZZEI,"RUA NILO LUIS MAZZEI, S/N, São Paulo",-23.49432,EE. GONÇALVES DIAS,-46.603271,Da 200ª à 209ª; 292ª; 319ª; 365ª; 399ª; 420ª; 463ª;,VILA MARIA,254
1929,PARQUE VILA MARIA,"RUA NOSSA SENHORA APARECIDA, 15, São Paulo",-23.495996,EMEF. GAL. PAULO CARNEIRO THOMAZ ALVES,-46.610184,376ª; 395ª; 426ª; 455ª; 464ª; 466ª; 471ª; 476ª;,VILA MARIA,254
1176,PARQUE NOVO MUNDO,"RUA GIUSEPPE MARINO, S/N, São Paulo",-23.515515,EMEF. PROFª. CELIA REGINA LEKEVICIUS CONSOLIN,-46.598167,392ª; 409ª; 417ª; 468ª;,VILA MARIA,254
3478,VILA MARIA ALTA,"RUA SOBRAL JÚNIOR, 234, São Paulo",-23.506029,EE. JÚLIO MAIA,-46.588059,Da 40ª à 49ª.,VILA MARIA,254
1177,PARQUE NOVO MUNDO,"RUA SOLDADO ALBINO CÉSAR, 25, São Paulo",-23.52187,EMEI. ANA NÉRI,-46.566071,415ª; 447ª; 453ª; 469ª;,VILA MARIA,254
4865,PARQUE NOVO MUNDO,"RUA SOLDADO ANTÓNIO ROMANO DE OLIVEIRA, 174, São Paulo",-23.512171,EE. PROF. MÁXIMO RIBEIRO NUNES,-46.573639,Da 124ª à 127ª; 282ª; 324ª; 339ª; 347ª; 349ª; 361ª; 381ª; 387ª; 393ª; 405ª;,VILA MARIA,254
7364,PARQUE NOVO MUNDO,"RUA SOLDADO BENEDITO ELISEU DOS SANTOS, 1817, São Paulo",-23.510941,EE. HERÓIS DA FEB,-46.569801,Da 128ª à 140ª; 277ª; 301ª; 310ª; 312ª; 323ª; 372ª; 424ª; 428ª; 454ª;,VILA MARIA,254
5920,PARQUE NOVO MUNDO,"RUA SOLDADO JOSÉ VICENTE DE PAULA, S/N, São Paulo",-23.521151,EMEF. CEL. ROMÃO GOMES,-46.566662,Da 141ª à 149ª; Da 288ª à 289ª; 313ª; 336ª; 345ª; 352ª; 363ª;,VILA MARIA,254
6356,JARDIM JAPAO,"RUA TOGO, 571, São Paulo",-23.505581,EE. IMPERATRIZ LEOPOLDINA,-46.5779,Da 76ª à 89ª; 276ª; 314ª; 389ª; 411ª;,VILA MARIA,254
5076,CHÁCARA MORRO ALTO,"AVENIDA DEPUTADO EMÍLIO CARLOS, 1980, São Paulo",-23.489634,EE. PAULO SETUBAL,-46.675285,Da 281ª à 290ª; Da 371ª à 372ª; 501ª;,CASA VERDE,255
3044,BAIRRO DO LIMÃO,"AVENIDA DEPUTADO EMÍLIO CARLOS, 318, São Paulo",-23.50176,COLÉGIO PADRE MOYE,-46.673241,389ª; 391ª; 395ª; 400ª; 415ª; Da 436ª à 437ª; 450ª;,CASA VERDE,255
3418,VILA HEBE,"AVENIDA DEPUTADO EMÍLIO CARLOS, 3641, São Paulo",-23.47617,EMEF. PROF. GILBERTO DUPAS,-46.670239,386ª; 398ª; 408ª; 416ª; 428ª; 434ª; 451ª; 464ª; 471ª; 476ª;,CASA VERDE,255
2051,BAIRRO DO LIMÃO,"AVENIDA DEPUTADO EMÍLIO CARLOS, 620, São Paulo",-23.49954,COLÉGIO SILVIO GONZALEZ - UNIDADE 3,-46.674965,Da 484ª à 485ª; 497ª; 514ª; 518ª; 520ª; 528ª; 530ª;,CASA VERDE,255
5422,VILA CARBONE,"AVENIDA DEPUTADO EMÍLIO CARLOS, 900, São Paulo",-23.4979,EE. PROF. LUIZ GONZAGA RIGHINI,-46.675911,Da 291ª à 305ª.,CASA VERDE,255
5974,CACHOEIRINHA,"AVENIDA GENERAL PENHA BRASIL, 139, São Paulo",-23.46969,EMEF. TENENTE AVIADOR FREDERICO GUSTAVO DOS SANTOS,-46.666691,Da 228ª à 241ª; 498ª; 507ª;,CASA VERDE,255
4061,BAIRRO DO LIMÃO,"AVENIDA PROFESSOR CELESTINO BOURROUL, 304, São Paulo",-23.511259,EE. VISCONDE DE TAUNAY,-46.672901,Da 112ª à 122ª.,CASA VERDE,255
2130,BAIRRO DO LIMÃO,"AVENIDA PROFESSOR CELESTINO BOURROUL, 358, São Paulo",-23.510508,EMEI GUIA LOPES,-46.673092,459ª; 466ª; 470ª; 474ª; 483ª; 512ª; 525ª;,CASA VERDE,255
7630,CASA VERDE BAIXA,"PRAÇA DIRCEU DE LIMA, 617, São Paulo",-23.51088,EE. PROF. BENEDITO TOLOSA,-46.65744,Da 85ª à 102ª; 377ª; 456ª; 492ª;,CASA VERDE,255
2481,VILA NOVA CACHOEIRINHA,"RUA ANTÔNIO DOMINGUES FREITAS, 147, São Paulo",-23.471941,EMEF. PROF. ROBERTO PATRÍCIO,-46.654266,387ª; 401ª; 413ª; 421ª; 443ª; 458ª; 482ª; 527ª;,CASA VERDE,255
5116,VILA CARBONE,"RUA ANTÔNIO RIBEIRO DE MORAIS, 184, São Paulo",-23.491631,EE. ANTOINE DE SAINT EXUPERY,-46.68108,382ª; 396ª; 405ª; 410ª; 420ª; 422ª; 430ª; 442ª; 455ª; 465ª; 469ª; 473ª; 511ª; 526ª;,CASA VERDE,255
5319,JARDIM SÃO MIGUEL,"RUA ARMANDO COELHO DA SILVA, 859, São Paulo",-23.49161,EMEF. COMANDANTE GARCIA D'ÁVILA,-46.65464,Da 59ª à 71ª; 490ª;,CASA VERDE,255
2402,CASA VERDE BAIXA,"RUA BRAZELIZA ALVES CARVALHO, 356, São Paulo",-23.512814,EMEF. PAULO NOGUEIRA FILHO,-46.650471,Da 107ª à 111ª; 376ª; 452ª; 481ª;,CASA VERDE,255
5733,VILA DIONÍSIA,"RUA CAMILO PEÇANHA, 10, São Paulo",-23.465691,EMEF. PROF. OSWALDO QUIRINO SIMÕES,-46.662151,Da 242ª à 251ª; Da 349ª à 352ª; 385ª; 499ª; 505ª;,CASA VERDE,255
6658,VILA NOVA CACHOEIRINHA,"RUA DEZ DE MAIO, 271, São Paulo",-23.470465,EE. PROF. ANTÔNIO JOSÉ LEITE,-46.655369,Da 252ª à 266ª; 339ª; 500ª; 510ª;,CASA VERDE,255
9957,VILA SIQUEIRA,"RUA DONA ESTELA BORGES MORATO, 500, São Paulo",-23.50223,EE. TARCÍSIO ALVARES LOBO,-46.681217,Da 123ª à 142ª; 325ª; Da 345ª à 348ª; 355ª;,CASA VERDE,255
4128,CASA VERDE ALTA,"RUA DOUTOR FLEURY SILVEIRA, 295, São Paulo",-23.489719,EMEI VICENTE PAULO DA SILVA,-46.670212,Da 306ª à 314ª; 384ª; 453ª;,CASA VERDE,255
3450,TUCURUVI,"AV. NOVA CANTAREIRA, 2724, São Paulo",-23.47455,INSTITUTO EDUCACIONAL SANTA JOANA D'ARC,-46.613129,Da 1ª à 9ª.,TUCURUVI,256
5867,SÍTIO DO MANDAQUI,"RUA EPAMINONDAS MELO DO AMARAL, 156, São Paulo",-23.484011,COLÉGIO PIAGET,-46.655151,399ª; 406ª; 412ª; 417ª; 423ª; 432ª; 448ª; 463ª; 468ª; 472ª; 475ª; 478ª; 480ª; 513ª; 516ª; 524ª; 529ª; 531ª;,CASA VERDE,255
4303,VILA BARBOSA,"RUA FRANCISCO AUGUSTO LOPES, 223, São Paulo",-23.49699,EMEF. PROF. AROLDO DE AZEVEDO,-46.672199,Da 360ª à 364ª; 390ª; 424ª; 431ª; 449ª; 467ª; 506ª;,CASA VERDE,255
6042,JARDIM IBÉRIA,"RUA GRACIANO ALTIERI, 114, São Paulo",-23.493576,EE. PROF. COLOMBO DE ALMEIDA,-46.660755,Da 170ª à 184ª; 495ª;,CASA VERDE,255
4206,CASA VERDE MÉDIA,"RUA GUARIZINHO, 587, São Paulo",-23.49856,LICEU CARVALHO PINTO,-46.661129,380ª; 392ª; 394ª; 404ª; 419ª; 427ª; 435ª; 446ª; 457ª; 494ª; 509ª; 519ª;,CASA VERDE,255
4205,JARDIM DAS LARANJEIRAS,"RUA IATAI, 7, São Paulo",-23.506273,COLÉGIO NOSSA SENHORA DAS DORES,-46.661728,Da 1ª à 8ª; 433ª; 447ª; 486ª; 503ª;,CASA VERDE,255
2165,VILA BARUEL,"RUA JOÃO RUDGE, 577, São Paulo",-23.511515,COLÉGIO CENTENÁRIO,-46.657311,388ª; 402ª; 407ª; 429ª; 441ª; 461ª;,CASA VERDE,255
4713,VILA SANTISTA,"RUA JOSÉ SORIANO DE SOUSA, 30, São Paulo",-23.49523,EE. MATILDE MACEDO SOARES,-46.667862,Da 340ª à 344ª; 359ª; Da 366ª à 368ª; 381ª; 425ª; 508ª;,CASA VERDE,255
4738,CASA VERDE ALTA,"RUA MANOEL DIAS DO CAMPO, 464, São Paulo",-23.485781,EMEF. HUMBERTO DANTAS,-46.670792,Da 315ª à 324ª; 383ª; 504ª; 523ª;,CASA VERDE,255
4430,SÍTIO CASA VERDE,"RUA MARACAIA, 204, São Paulo",-23.469919,EE. REPÚBLICA DO CHILE,-46.66367,Da 218ª à 227ª; Da 373ª à 374ª;,CASA VERDE,255
4709,VILA BELA VISTA (ZONA NORTE),"RUA MARIA DE SÃO JOSÉ CUNHA, 108, São Paulo",-23.467787,EE. PROF. ALFREDO GOMES,-46.657463,Da 267ª à 280ª.,CASA VERDE,255
7749,VILA DOS ANDRADES,"RUA MENDONÇA JÚNIOR, 611, São Paulo",-23.476732,EE. TITO PRATES DA FONSECA,-46.664001,Da 203ª à 217ª; Da 326ª à 328ª; 502ª; 515ª;,CASA VERDE,255
5270,VILA BARUEL,"RUA NOVA GRANADA, 35, São Paulo",-23.505104,ETEC ALBERT EINSTEIN,-46.659672,Da 103ª à 106ª; Da 329ª à 338ª; 522ª;,CASA VERDE,255
7098,JARDIM SÃO BENTO,"RUA NÚRSIA, 412, São Paulo",-23.502727,EE. CAPITÃO PEDRO MONTEIRO DO AMARAL,-46.650635,Da 33ª à 47ª; 375ª; 454ª; 488ª;,CASA VERDE,255
2660,PARQUE PERUCHE,"RUA OURO GROSSO, 933, São Paulo",-23.5007,COLÉGIO OURO GROSSO,-46.656609,403ª; 409ª; 414ª; 426ª; 444ª; 460ª; 477ª; 479ª;,CASA VERDE,255
6582,IMIRIM,"RUA PADRE JOÃO GUALBERTO, 311, São Paulo",-23.491421,EE. PROF. AUGUSTO MEIRELLES REIS FILHO,-46.651588,Da 72ª à 84ª; Da 353ª à 354ª; 378ª; 445ª; 491ª;,CASA VERDE,255
6596,CASA VERDE,"RUA SANTA EUDÓXIA, 630, São Paulo",-23.49786,EE. ARY BARROSO,-46.655541,Da 48ª à 58ª; 365ª; Da 369ª à 370ª; 379ª; 462ª; 489ª;,CASA VERDE,255
7410,PARQUE SOUZA ARANHA,"RUA SANTA PRISCA, 122, São Paulo",-23.509108,EE. PADRE MANOEL DA NOBREGA,-46.663315,Da 9ª à 23ª; Da 356ª à 358ª; 487ª;,CASA VERDE,255
5929,VILA SIQUEIRA,"RUA VICENTE FERREIRA LEITE, 489, São Paulo",-23.49855,EE. PROFA. ANGELINA MADUREIRA,-46.680489,Da 143ª à 157ª; 493ª;,CASA VERDE,255
3349,VILA BARUEL,"RUA VICHY, 488, São Paulo",-23.50396,EE. PROF. JOSÉ CARLOS DIAS,-46.66032,Da 24ª à 32ª.,CASA VERDE,255
4104,ÁGUA FRIA,"AV. ÁGUA FRIA, 1913, São Paulo",-23.472717,COLÉGIO OBJETIVO CANTAREIRA,-46.618298,320ª; 324ª; 359ª; 371ª; 393ª; 402ª; 421ª; 434ª; 442ª; 446ª; 448ª;,TUCURUVI,256
6188,SITIO DO PIQUERI,"AV. ANTONELO DA MESSINA, 222, São Paulo",-23.454664,EE. PROFA. EUNICE TEREZINHA DE OLIVEIRA FRÁGOAS,-46.589374,262ª; Da 266ª à 267ª; 275ª; 288ª; 299ª; 311ª; 344ª; 355ª; 368ª; 380ª; 399ª; 404ª; 414ª; 429ª; 438ª;,TUCURUVI,256
3692,NUCLEO DO ENGORDADOR,"AV. CEL. SEZEFREDO FAGUNDES, 14666, São Paulo",-23.417311,EE. PROFA. PHILOMENA BAYLAO,-46.58564,296ª; 317ª; 331ª; 367ª; 382ª; 411ª; 430ª; 443ª; 453ª; 457ª; 461ª;,TUCURUVI,256
3957,TUCURUVI,"AV. CEL. SEZEFREDO FAGUNDES, 2805, São Paulo",-23.45458,COLÉGIO UNIVIP ESCOLAS ASSOCIADAS,-46.602203,318ª; 327ª; 358ª; 365ª; 376ª; 381ª; 390ª; 394ª; 401ª; 409ª;,TUCURUVI,256
2665,TUCURUVI,"AV. NOVA CANTAREIRA, 2534, São Paulo",-23.47579,COLÉGIO JARDIM FRANÇA,-46.612049,230ª; 234ª; 243ª; 247ª; 250ª; 252ª; 255ª;,TUCURUVI,256
7926,JARDIM DONA LEONOR MENDES DE BARROS,"AV. PROFA. VIRGÍLIA RODRIGUES ALVES DE CARVALHO PINTO, 633, São Paulo",-23.571051,EE. DR. ALBERTO CARDOSO DE MELLO NETO,-46.528851,Da 118ª à 137ª.,TUCURUVI,256
4214,TUCURUVI,"AV. TUCURUVI, 470, São Paulo",-23.48027,COLÉGIO PASSIONISTA SÃO PAULO DA CRUZ,-46.607159,Da 20ª à 29ª; 354ª;,TUCURUVI,256
5548,TUCURUVI,"AV. TUCURUVI, 724, São Paulo",-23.481171,EE. SILVA JARDIM,-46.604622,Da 30ª à 39ª; 305ª; 352ª; 378ª; 422ª;,TUCURUVI,256
5783,ÁGUA FRIA,"RUA ALTINÓPOLIS, 501, São Paulo",-23.482862,EE. EXPEDICIONÁRIO BRASILEIRO,-46.619915,Da 40ª à 53ª; 347ª;,TUCURUVI,256
8723,BORTOLANDIA,"RUA ANTÔNIO GONÇALVES SILVA, 91, São Paulo",-23.45499,EE. ÂNGELO BORTOLO,-46.597191,Da 77ª à 98ª.,TUCURUVI,256
3593,TREMEMBE,"RUA ANTÔNIO PESTANA, 155, São Paulo",-23.46217,COLÉGIO PASSIONISTA SANTA GEMA,-46.621971,319ª; 340ª; 351ª; 361ª; 373ª; 386ª; 397ª; 403ª; 417ª; 445ª;,TUCURUVI,256
4517,TREMEMBE,"RUA ANTÔNIO PESTANA, 58, São Paulo",-23.460985,EE. ARNALDO BARRETO,-46.622158,Da 164ª à 173ª; 231ª; 307ª;,TUCURUVI,256
